1629321001485640 1629321001485 
$GNTXT,01,01,02,u-blox AG - www.u-blox.com*4E
1629321001485799 1629321001485 
$GNTXT,01,01,02,HW UBX-M8030 00080000*60
1629321001485805 1629321001485 
$GNTXT,01,01,02,EXT CORE 3.01 (107900)*33
1629321001485817 1629321001485 
$GNTXT,01,01,02,ROM BASE 2.01 (75331)*19
1629321001485824 1629321001485 
$GNTXT,01,01,02,FWVER=SPG 3.01*46
1629321001486859 1629321001486 
$GNTXT,01,01,02,PROTVER=18.00*11
1629321001486870 1629321001486 
$GNTXT,01,01,02,MOD=NEO-M8N-0*67
1629321001486877 1629321001486 
$GNTXT,01,01,02,FIS=0xEF4015 (100111)*58
1629321001487593 1629321001487 
$GNTXT,01,01,02,GPS;GLO;GAL;BDS*77
1629321001487650 1629321001487 
$GNTXT,01,01,02,SBAS;IMES;QZSS*49
1629321001488009 1629321001488 
$GNTXT,01,01,02,GNSS OTP=GPS;GLO*37
1629321001488629 1629321001488 
$GNTXT,01,01,02,LLC=FFFFFFFF-FFFFFFED-FFFFFFFF-FFFFFFFF-FFFFFF69*23
1629321001488637 1629321001488 
$GNTXT,01,01,02,ANTSUPERV=AC SD PDoS SR*3E
1629321001488669 1629321001488 
$GNTXT,01,01,02,ANTSTATUS=OK*25
1629321001489051 1629321001489 
$GNTXT,01,01,02,PF=86*76
1629321001849218 1629321001849 
$GNRMC,211002.00,A,3849.70037,S,06804.16410,W,0.038,,180821,,,A*65
1629321001849230 1629321001849 
$GNVTG,,T,,M,0.038,N,0.070,K,A*31
1629321001849237 1629321001849 
$GNGGA,211002.00,3849.70037,S,06804.16410,W,1,12,0.74,280.7,M,22.7,M,,*4A
1629321001849243 1629321001849 
$GNGSA,A,3,25,12,29,02,24,20,32,31,05,18,,,1.25,0.74,1.00*1E
1629321001849249 1629321001849 
$GNGSA,A,3,74,85,84,,,,,,,,,,1.25,0.74,1.00*1A
1629321001849513 1629321001849 
$GPGSV,4,1,14,02,36,127,41,05,07,059,43,06,05,146,26,12,51,096,48*76
1629321001849528 1629321001849 
$GPGSV,4,2,14,18,11,346,41,20,14,090,42,24,15,017,31,25,74,165,42*79
1629321001849618 1629321001849 
$GPGSV,4,3,14,29,65,271,25,31,26,226,38,32,12,288,29,46,14,289,*74
1629321001849654 1629321001849 
$GPGSV,4,4,14,48,11,286,36,51,30,308,34*72
1629321001851242 1629321001851 
$GLGSV,2,1,06,74,24,048,40,75,77,093,29,76,38,213,36,84,13,148,19*6A
1629321001851254 1629321001851 
$GLGSV,2,2,06,85,72,154,40,86,53,324,29*69
1629321001851672 1629321001851 
$GNGLL,3849.70037,S,06804.16410,W,211002.00,A,A*75
1629321002840393 1629321002840 
$GNRMC,211003.00,A,3849.70034,S,06804.16409,W,0.039,,180821,,,A*6E
1629321002840422 1629321002840 
$GNVTG,,T,,M,0.039,N,0.072,K,A*32
1629321002840549 1629321002840 
$GNGGA,211003.00,3849.70034,S,06804.16409,W,1,12,0.74,280.7,M,22.7,M,,*40
1629321002840642 1629321002840 
$GNGSA,A,3,25,12,29,02,24,20,32,31,05,18,,,1.25,0.74,1.00*1E
1629321002840661 1629321002840 
$GNGSA,A,3,74,85,84,,,,,,,,,,1.25,0.74,1.00*1A
1629321002842435 1629321002842 
$GPGSV,4,1,14,02,36,127,40,05,07,059,44,06,05,146,26,12,51,096,48*70
1629321002842459 1629321002842 
$GPGSV,4,2,14,18,11,346,41,20,14,090,42,24,15,017,31,25,74,165,42*79
1629321002842558 1629321002842 
$GPGSV,4,3,14,29,65,271,28,31,26,226,38,32,12,288,28,46,14,289,*78
1629321002842564 1629321002842 
$GPGSV,4,4,14,48,11,286,36,51,30,308,33*75
1629321002843041 1629321002843 
$GLGSV,2,1,06,74,24,048,40,75,77,093,27,76,38,213,35,84,13,148,19*67
1629321002843053 1629321002843 
$GLGSV,2,2,06,85,72,154,40,86,53,324,29*69
1629321002843125 1629321002843 
$GNGLL,3849.70034,S,06804.16409,W,211003.00,A,A*7F
1629321003846619 1629321003846 
$GNRMC,211004.00,A,3849.70030,S,06804.16406,W,0.042,,180821,,,A*6E
1629321003846631 1629321003846 
$GNVTG,,T,,M,0.042,N,0.079,K,A*35
1629321003846961 1629321003846 
$GNGGA,211004.00,3849.70030,S,06804.16406,W,1,12,0.74,280.7,M,22.7,M,,*4C
1629321003848426 1629321003848 
$GNGSA,A,3,25,12,29,02,24,20,32,31,05,18,,,1.25,0.74,1.00*1E
1629321003849479 1629321003849 
$GNGSA,A,3,74,85,84,,,,,,,,,,1.25,0.74,1.00*1A
1629321003849492 1629321003849 
$GPGSV,4,1,14,02,36,127,40,05,07,059,44,06,05,146,26,12,51,096,47*7F
1629321003849506 1629321003849 
$GPGSV,4,2,14,18,11,346,42,20,14,090,42,24,15,017,32,25,74,165,42*79
1629321003849606 1629321003849 
$GPGSV,4,3,14,29,65,271,28,31,26,226,38,32,12,288,27,46,14,289,*77
1629321003849632 1629321003849 
$GPGSV,4,4,14,48,11,286,36,51,30,308,33*75
1629321003850553 1629321003850 
$GLGSV,2,1,06,74,24,048,41,75,77,093,26,76,38,213,36,84,13,148,20*6E
1629321003850592 1629321003850 
$GLGSV,2,2,06,85,72,154,40,86,53,324,29*69
1629321003850629 1629321003850 
$GNGLL,3849.70030,S,06804.16406,W,211004.00,A,A*73
1629321004844676 1629321004844 
$GNRMC,211005.00,A,3849.70037,S,06804.16404,W,0.058,,180821,,,A*61
1629321004844697 1629321004844 
$GNVTG,,T,,M,0.058,N,0.108,K,A*39
1629321004845720 1629321004845 
$GNGGA,211005.00,3849.70037,S,06804.16404,W,1,12,0.74,280.6,M,22.7,M,,*49
1629321004845732 1629321004845 
$GNGSA,A,3,25,12,29,02,24,20,32,31,05,18,,,1.25,0.74,1.00*1E
1629321004845739 1629321004845 
$GNGSA,A,3,74,85,84,,,,,,,,,,1.25,0.74,1.00*1A
1629321004847352 1629321004847 
$GPGSV,4,1,14,02,36,127,42,05,07,059,44,06,05,146,26,12,51,096,47*7D
1629321004847568 1629321004847 
$GPGSV,4,2,14,18,11,346,41,20,14,090,43,24,15,017,32,25,74,165,41*78
1629321004847609 1629321004847 
$GPGSV,4,3,14,29,65,271,29,31,26,226,38,32,12,288,26,46,14,289,*77
1629321004847627 1629321004847 
$GPGSV,4,4,14,48,11,286,36,51,30,308,34*72
1629321004848574 1629321004848 
$GLGSV,2,1,06,74,24,048,41,75,77,093,27,76,38,213,36,84,13,148,20*6F
1629321004848587 1629321004848 
$GLGSV,2,2,06,85,72,154,40,86,53,324,29*69
1629321004848639 1629321004848 
$GNGLL,3849.70037,S,06804.16404,W,211005.00,A,A*77
1629321005850047 1629321005850 
$GNRMC,211006.00,A,3849.70041,S,06804.16403,W,0.070,,180821,,,A*6E
1629321005850058 1629321005850 
$GNVTG,,T,,M,0.070,N,0.130,K,A*38
1629321005850065 1629321005850 
$GNGGA,211006.00,3849.70041,S,06804.16403,W,1,12,0.74,280.5,M,22.7,M,,*4F
1629321005850374 1629321005850 
$GNGSA,A,3,25,12,29,02,24,20,32,31,05,18,,,1.25,0.74,1.00*1E
1629321005850498 1629321005850 
$GNGSA,A,3,74,85,84,,,,,,,,,,1.25,0.74,1.00*1A
1629321005852540 1629321005852 
$GPGSV,4,1,14,02,36,127,42,05,07,059,44,06,05,146,26,12,51,096,46*7C
1629321005852612 1629321005852 
$GPGSV,4,2,14,18,11,346,42,20,14,090,42,24,14,017,32,25,74,165,41*7B
1629321005852682 1629321005852 
$GPGSV,4,3,14,29,65,271,27,31,26,226,37,32,12,288,24,46,14,289,*74
1629321005852851 1629321005852 
$GPGSV,4,4,14,48,11,286,36,51,30,308,36*70
1629321005853236 1629321005853 
$GLGSV,2,1,06,74,24,048,40,75,77,093,28,76,38,213,37,84,13,148,19*6A
1629321005853262 1629321005853 
$GLGSV,2,2,06,85,72,154,40,86,53,324,28*68
1629321005853320 1629321005853 
$GNGLL,3849.70041,S,06804.16403,W,211006.00,A,A*72
1629321006837517 1629321006837 
$GNRMC,211007.00,A,3849.70042,S,06804.16401,W,0.022,,180821,,,A*69
1629321006837538 1629321006837 
$GNVTG,,T,,M,0.022,N,0.041,K,A*38
1629321006837664 1629321006837 
$GNGGA,211007.00,3849.70042,S,06804.16401,W,1,12,0.74,280.5,M,22.7,M,,*4F
1629321006837733 1629321006837 
$GNGSA,A,3,25,12,29,02,24,20,32,31,05,18,,,1.25,0.74,1.00*1E
1629321006838300 1629321006838 
$GNGSA,A,3,74,85,84,,,,,,,,,,1.25,0.74,1.00*1A
1629321006838811 1629321006838 
$GPGSV,4,1,14,02,36,127,42,05,07,059,44,06,05,146,27,12,51,096,47*7C
1629321006839340 1629321006839 
$GPGSV,4,2,14,18,11,346,42,20,14,090,42,24,14,017,32,25,74,164,41*7A
1629321006839423 1629321006839 
$GPGSV,4,3,14,29,65,271,27,31,26,226,38,32,12,288,24,46,14,289,*7B
1629321006839464 1629321006839 
$GPGSV,4,4,14,48,11,286,36,51,30,308,35*73
1629321006840239 1629321006840 
$GLGSV,2,1,06,74,24,048,40,75,77,093,29,76,38,213,38,84,13,148,17*6A
1629321006840280 1629321006840 
$GLGSV,2,2,06,85,72,154,39,86,53,324,27*69
1629321006840400 1629321006840 
$GNGLL,3849.70042,S,06804.16401,W,211007.00,A,A*72
1629321007849839 1629321007849 
$GNRMC,211008.00,A,3849.70040,S,06804.16399,W,0.024,,180821,,,A*64
1629321007849850 1629321007849 
$GNVTG,,T,,M,0.024,N,0.045,K,A*3A
1629321007849857 1629321007849 
$GNGGA,211008.00,3849.70040,S,06804.16399,W,1,12,0.74,280.5,M,22.7,M,,*44
1629321007849863 1629321007849 
$GNGSA,A,3,25,12,29,02,24,20,32,31,05,18,,,1.25,0.74,1.00*1E
1629321007849870 1629321007849 
$GNGSA,A,3,74,85,84,,,,,,,,,,1.25,0.74,1.00*1A
1629321007850585 1629321007850 
$GPGSV,4,1,14,02,36,127,41,05,07,059,44,06,05,146,28,12,51,096,48*7F
1629321007850635 1629321007850 
$GPGSV,4,2,14,18,11,346,41,20,14,090,43,24,14,017,31,25,74,164,41*7B
1629321007850870 1629321007850 
$GPGSV,4,3,14,29,65,271,33,31,26,226,37,32,12,288,24,46,14,289,29*7A
1629321007851584 1629321007851 
$GPGSV,4,4,14,48,11,286,37,51,30,308,35*72
1629321007853689 1629321007853 
$GLGSV,2,1,06,74,24,048,40,75,77,093,29,76,38,213,38,84,13,148,17*6A
1629321007853701 1629321007853 
$GLGSV,2,2,06,85,72,154,39,86,53,324,28*66
1629321007853708 1629321007853 
$GNGLL,3849.70040,S,06804.16399,W,211008.00,A,A*79
1629321008852569 1629321008852 
$GNRMC,211009.00,A,3849.70034,S,06804.16398,W,0.020,,180821,,,A*63
1629321008852581 1629321008852 
$GNVTG,,T,,M,0.020,N,0.037,K,A*3B
1629321008852661 1629321008852 
$GNGGA,211009.00,3849.70034,S,06804.16398,W,1,12,0.70,280.5,M,22.7,M,,*43
1629321008852840 1629321008852 
$GNGSA,A,3,25,12,29,02,24,20,32,31,05,18,,,1.22,0.70,1.00*1D
1629321008852965 1629321008852 
$GNGSA,A,3,74,85,84,76,,,,,,,,,1.22,0.70,1.00*18
1629321008853336 1629321008853 
$GPGSV,4,1,14,02,36,127,38,05,07,059,43,06,05,146,28,12,51,096,48*76
1629321008853348 1629321008853 
$GPGSV,4,2,14,18,11,346,41,20,14,090,42,24,14,017,32,25,74,164,41*79
1629321008853477 1629321008853 
$GPGSV,4,3,14,29,65,271,28,31,26,226,37,32,12,288,24,46,14,289,*7B
1629321008853485 1629321008853 
$GPGSV,4,4,14,48,11,286,35,51,30,308,34*71
1629321008853816 1629321008853 
$GLGSV,2,1,06,74,24,048,38,75,77,093,28,76,38,213,33,84,13,148,18*60
1629321008853940 1629321008853 
$GLGSV,2,2,06,85,72,154,40,86,53,324,27*67
1629321008854379 1629321008854 
$GNGLL,3849.70034,S,06804.16398,W,211009.00,A,A*7A
1629321009849179 1629321009849 
$GNRMC,211010.00,A,3849.70030,S,06804.16396,W,0.031,,180821,,,A*61
1629321009849191 1629321009849 
$GNVTG,,T,,M,0.031,N,0.058,K,A*32
1629321009849197 1629321009849 
$GNGGA,211010.00,3849.70030,S,06804.16396,W,1,12,0.72,280.6,M,22.7,M,,*40
1629321009849203 1629321009849 
$GNGSA,A,3,25,12,29,02,24,20,32,31,05,18,,,1.32,0.72,1.10*1F
1629321009849210 1629321009849 
$GNGSA,A,3,74,85,84,76,,,,,,,,,1.32,0.72,1.10*1A
1629321009849538 1629321009849 
$GPGSV,4,1,14,02,36,127,38,05,07,059,43,06,05,146,28,12,51,096,47*79
1629321009849551 1629321009849 
$GPGSV,4,2,14,18,11,346,42,20,14,090,41,24,14,017,32,25,74,164,41*79
1629321009849634 1629321009849 
$GPGSV,4,3,14,29,65,270,28,31,26,226,37,32,12,288,26,46,14,289,*78
1629321009849669 1629321009849 
$GPGSV,4,4,14,48,11,286,34,51,30,308,34*70
1629321009850488 1629321009850 
$GLGSV,2,1,06,74,24,048,39,75,77,093,28,76,38,213,32,84,13,148,21*6A
1629321009850507 1629321009850 
$GLGSV,2,2,06,85,72,154,39,86,53,324,26*68
1629321009850548 1629321009850 
$GNGLL,3849.70030,S,06804.16396,W,211010.00,A,A*78
1629321010848198 1629321010848 
$GNRMC,211011.00,A,3849.70025,S,06804.16393,W,0.034,,180821,,,A*64
1629321010848210 1629321010848 
$GNVTG,,T,,M,0.034,N,0.063,K,A*3F
1629321010848386 1629321010848 
$GNGGA,211011.00,3849.70025,S,06804.16393,W,1,12,0.72,280.7,M,22.7,M,,*41
1629321010848531 1629321010848 
$GNGSA,A,3,25,12,29,02,24,20,32,31,05,18,,,1.32,0.72,1.10*1F
1629321010848567 1629321010848 
$GNGSA,A,3,74,85,84,76,,,,,,,,,1.32,0.72,1.10*1A
1629321010849458 1629321010849 
$GPGSV,4,1,14,02,36,127,38,05,07,059,43,06,05,146,27,12,51,096,48*79
1629321010849470 1629321010849 
$GPGSV,4,2,14,18,11,346,41,20,14,090,41,24,14,017,32,25,74,164,41*7A
1629321010849476 1629321010849 
$GPGSV,4,3,14,29,65,270,27,31,26,226,38,32,12,288,26,46,14,289,*78
1629321010849483 1629321010849 
$GPGSV,4,4,14,48,11,286,34,51,30,308,32*76
1629321010849559 1629321010849 
$GLGSV,2,1,06,74,24,048,40,75,77,093,26,76,38,213,32,84,13,148,21*6A
1629321010849608 1629321010849 
$GLGSV,2,2,06,85,72,154,39,86,53,324,26*68
1629321010849654 1629321010849 
$GNGLL,3849.70025,S,06804.16393,W,211011.00,A,A*78
1629321011850857 1629321011850 
$GNRMC,211012.00,A,3849.70018,S,06804.16391,W,0.081,,180821,,,A*65
1629321011850869 1629321011850 
$GNVTG,,T,,M,0.081,N,0.151,K,A*31
1629321011850875 1629321011850 
$GNGGA,211012.00,3849.70018,S,06804.16391,W,1,12,0.70,280.8,M,22.7,M,,*43
1629321011850881 1629321011850 
$GNGSA,A,3,25,12,29,02,24,20,32,31,05,18,,,1.22,0.70,1.00*1D
1629321011850904 1629321011850 
$GNGSA,A,3,74,85,84,76,,,,,,,,,1.22,0.70,1.00*18
1629321011853443 1629321011853 
$GPGSV,4,1,14,02,36,127,38,05,07,059,44,06,05,146,27,12,51,096,47*71
1629321011853455 1629321011853 
$GPGSV,4,2,14,18,11,346,41,20,14,090,42,24,14,017,33,25,74,164,41*78
1629321011853462 1629321011853 
$GPGSV,4,3,14,29,65,270,26,31,26,226,38,32,12,288,25,46,14,289,*7A
1629321011853467 1629321011853 
$GPGSV,4,4,14,48,11,286,34,51,30,308,33*77
1629321011853480 1629321011853 
$GLGSV,2,1,06,74,24,048,39,75,77,093,25,76,38,213,34,84,13,148,22*62
1629321011853487 1629321011853 
$GLGSV,2,2,06,85,72,154,40,86,53,324,25*65
1629321011853556 1629321011853 
$GNGLL,3849.70018,S,06804.16391,W,211012.00,A,A*77
1629321012846088 1629321012846 
$GNRMC,211013.00,A,3849.70017,S,06804.16390,W,0.076,,180821,,,A*62
1629321012846100 1629321012846 
$GNVTG,,T,,M,0.076,N,0.140,K,A*39
1629321012846106 1629321012846 
$GNGGA,211013.00,3849.70017,S,06804.16390,W,1,12,0.72,280.8,M,22.7,M,,*4E
1629321012847092 1629321012847 
$GNGSA,A,3,25,12,29,02,24,20,32,31,05,18,,,1.32,0.72,1.10*1F
1629321012847103 1629321012847 
$GNGSA,A,3,74,85,84,76,,,,,,,,,1.32,0.72,1.10*1A
1629321012847784 1629321012847 
$GPGSV,4,1,14,02,36,127,41,05,07,059,44,06,05,146,28,12,51,096,47*70
1629321012848301 1629321012848 
$GPGSV,4,2,14,18,11,346,41,20,14,090,43,24,14,017,33,25,74,164,42*7A
1629321012848355 1629321012848 
$GPGSV,4,3,14,29,65,270,24,31,26,226,38,32,12,289,23,46,14,289,*7F
1629321012848450 1629321012848 
$GPGSV,4,4,14,48,11,286,35,51,30,308,34*71
1629321012848999 1629321012848 
$GLGSV,2,1,06,74,24,048,39,75,77,093,25,76,38,213,36,84,13,148,21*63
1629321012849011 1629321012849 
$GLGSV,2,2,06,85,72,154,40,86,53,324,25*65
1629321012849053 1629321012849 
$GNGLL,3849.70017,S,06804.16390,W,211013.00,A,A*78
1629321013841165 1629321013841 
$GNRMC,211014.00,A,3849.70000,S,06804.16413,W,1.005,29.46,180821,,,A*4D
1629321013841764 1629321013841 
$GNVTG,29.46,T,,M,1.005,N,1.862,K,A*13
1629321013843498 1629321013843 
$GNGGA,211014.00,3849.70000,S,06804.16413,W,1,12,0.70,281.0,M,22.7,M,,*48
1629321013843574 1629321013843 
$GNGSA,A,3,25,12,29,02,24,20,32,31,05,18,,,1.22,0.70,1.00*1D
1629321013843624 1629321013843 
$GNGSA,A,3,74,85,84,76,,,,,,,,,1.22,0.70,1.00*18
1629321013844633 1629321013844 
$GPGSV,4,1,14,02,36,127,39,05,07,059,45,06,05,146,27,12,51,096,33*72
1629321013844661 1629321013844 
$GPGSV,4,2,14,18,11,346,42,20,14,090,36,24,14,017,33,25,74,164,33*7D
1629321013844797 1629321013844 
$GPGSV,4,3,14,29,65,270,41,31,26,226,36,32,12,289,39,46,14,289,37*7D
1629321013845232 1629321013845 
$GPGSV,4,4,14,48,11,286,32,51,30,308,43*76
1629321013845680 1629321013845 
$GLGSV,2,1,06,74,24,048,31,75,77,093,38,76,38,213,33,84,13,148,21*62
1629321013845688 1629321013845 
$GLGSV,2,2,06,85,72,154,27,86,53,324,26*67
1629321013845696 1629321013845 
$GNGLL,3849.70000,S,06804.16413,W,211014.00,A,A*75
1629321014853085 1629321014853 
$GNRMC,211015.00,A,3849.70018,S,06804.16430,W,0.771,51.30,180821,,,A*4F
1629321014853097 1629321014853 
$GNVTG,51.30,T,,M,0.771,N,1.428,K,A*1A
1629321014853103 1629321014853 
$GNGGA,211015.00,3849.70018,S,06804.16430,W,1,12,0.70,281.0,M,22.7,M,,*41
1629321014853110 1629321014853 
$GNGSA,A,3,25,12,29,02,24,20,32,31,05,18,,,1.22,0.70,1.00*1D
1629321014853116 1629321014853 
$GNGSA,A,3,74,85,84,76,,,,,,,,,1.22,0.70,1.00*18
1629321014854021 1629321014854 
$GPGSV,4,1,14,02,36,127,29,05,07,059,31,06,05,146,27,12,51,096,24*76
1629321014854034 1629321014854 
$GPGSV,4,2,14,18,11,346,38,20,14,090,30,24,14,017,34,25,74,164,43*76
1629321014854040 1629321014854 
$GPGSV,4,3,14,29,65,270,36,31,26,226,49,32,12,289,39,46,14,289,37*75
1629321014854046 1629321014854 
$GPGSV,4,4,14,48,11,286,38,51,30,308,32*7A
1629321014854443 1629321014854 
$GLGSV,2,1,06,74,24,048,29,75,77,093,36,76,38,213,37,84,13,148,20*60
1629321014854451 1629321014854 
$GLGSV,2,2,06,85,72,154,38,86,53,324,33*6D
1629321014854500 1629321014854 
$GNGLL,3849.70018,S,06804.16430,W,211015.00,A,A*7C
1629321015855443 1629321015855 
$GNRMC,211016.00,A,3849.70074,S,06804.16486,W,0.440,,180821,,,A*63
1629321015855585 1629321015855 
$GNVTG,,T,,M,0.440,N,0.816,K,A*32
1629321015855786 1629321015855 
$GNGGA,211016.00,3849.70074,S,06804.16486,W,1,12,0.70,280.4,M,22.7,M,,*40
1629321015857107 1629321015857 
$GNGSA,A,3,25,12,29,02,24,20,32,31,05,18,,,1.22,0.70,1.00*1D
1629321015857120 1629321015857 
$GNGSA,A,3,74,85,84,76,,,,,,,,,1.22,0.70,1.00*18
1629321015858315 1629321015858 
$GPGSV,4,1,14,02,36,127,33,05,07,059,27,06,05,146,25,12,51,096,41*7B
1629321015858441 1629321015858 
$GPGSV,4,2,14,18,11,346,36,20,14,090,27,24,14,017,22,25,74,164,41*7B
1629321015858510 1629321015858 
$GPGSV,4,3,14,29,65,270,44,31,26,226,48,32,12,289,36,46,14,289,39*70
1629321015858555 1629321015858 
$GPGSV,4,4,14,48,11,286,30,51,30,308,43*74
1629321015859392 1629321015859 
$GLGSV,2,1,06,74,24,048,26,75,77,093,37,76,38,213,47,84,13,148,22*6B
1629321015859406 1629321015859 
$GLGSV,2,2,06,85,72,154,37,86,53,324,29*69
1629321015859479 1629321015859 
$GNGLL,3849.70074,S,06804.16486,W,211016.00,A,A*78
1629321016849293 1629321016849 
$GNRMC,211017.00,A,3849.70095,S,06804.16497,W,0.753,,180821,,,A*6C
1629321016849313 1629321016849 
$GNVTG,,T,,M,0.753,N,1.395,K,A*32
1629321016849476 1629321016849 
$GNGGA,211017.00,3849.70095,S,06804.16497,W,1,12,0.70,280.4,M,22.7,M,,*4E
1629321016849561 1629321016849 
$GNGSA,A,3,25,12,29,02,24,20,32,31,05,18,,,1.22,0.70,1.00*1D
1629321016849590 1629321016849 
$GNGSA,A,3,74,85,84,76,,,,,,,,,1.22,0.70,1.00*18
1629321016850573 1629321016850 
$GPGSV,4,1,14,02,36,127,29,05,07,059,27,06,05,146,25,12,51,096,31*77
1629321016850588 1629321016850 
$GPGSV,4,2,14,18,11,346,31,20,14,090,31,24,14,017,26,25,74,164,36*7F
1629321016850681 1629321016850 
$GPGSV,4,3,14,29,65,270,39,31,26,226,47,32,12,289,36,46,14,289,38*74
1629321016850771 1629321016850 
$GPGSV,4,4,14,48,11,286,39,51,30,308,38*71
1629321016851677 1629321016851 
$GLGSV,2,1,06,74,24,048,27,75,77,093,30,76,38,213,41,84,13,148,20*69
1629321016851707 1629321016851 
$GLGSV,2,2,06,85,72,154,35,86,53,324,31*62
1629321016852461 1629321016852 
$GNGLL,3849.70095,S,06804.16497,W,211017.00,A,A*76
1629321017854312 1629321017854 
$GNRMC,211018.00,A,3849.70132,S,06804.16491,W,0.727,118.42,180821,,,A*7A
1629321017854324 1629321017854 
$GNVTG,118.42,T,,M,0.727,N,1.346,K,A*2F
1629321017854489 1629321017854 
$GNGGA,211018.00,3849.70132,S,06804.16491,W,1,12,0.70,279.8,M,22.7,M,,*41
1629321017854564 1629321017854 
$GNGSA,A,3,25,12,29,02,24,20,32,31,05,18,,,1.22,0.70,1.00*1D
1629321017854604 1629321017854 
$GNGSA,A,3,74,85,84,76,,,,,,,,,1.22,0.70,1.00*18
1629321017856284 1629321017856 
$GPGSV,4,1,14,02,36,127,39,05,07,059,35,06,05,146,24,12,51,096,32*77
1629321017856613 1629321017856 
$GPGSV,4,2,14,18,11,346,37,20,14,090,26,24,14,017,25,25,74,164,45*78
1629321017856679 1629321017856 
$GPGSV,4,3,14,29,65,270,40,31,26,226,45,32,12,289,41,46,14,289,36*76
1629321017856820 1629321017856 
$GPGSV,4,4,14,48,11,286,38,51,30,308,44*7B
1629321017858573 1629321017858 
$GLGSV,2,1,06,74,24,048,39,75,77,093,38,76,38,213,38,84,13,148,20*60
1629321017858580 1629321017858 
$GLGSV,2,2,06,85,72,154,40,86,53,324,25*65
1629321017858624 1629321017858 
$GNGLL,3849.70132,S,06804.16491,W,211018.00,A,A*73
1629321018857000 1629321018856 
$GNRMC,211019.00,A,3849.70179,S,06804.16482,W,1.229,147.63,180821,,,A*75
1629321018857012 1629321018857 
$GNVTG,147.63,T,,M,1.229,N,2.276,K,A*2D
1629321018857018 1629321018857 
$GNGGA,211019.00,3849.70179,S,06804.16482,W,1,12,0.73,279.9,M,22.7,M,,*4F
1629321018857650 1629321018857 
$GNGSA,A,3,25,12,29,02,24,20,32,31,05,18,,,1.26,0.73,1.03*19
1629321018857678 1629321018857 
$GNGSA,A,3,74,85,84,76,,,,,,,,,1.26,0.73,1.03*1C
1629321018858839 1629321018858 
$GPGSV,4,1,14,02,36,127,31,05,07,059,29,06,05,146,24,12,51,096,35*75
1629321018859298 1629321018859 
$GPGSV,4,2,14,18,11,346,23,20,14,090,31,24,14,017,35,25,74,164,37*7F
1629321018859360 1629321018859 
$GPGSV,4,3,14,29,65,270,43,31,26,226,48,32,12,289,37,46,14,289,34*7B
1629321018859395 1629321018859 
$GPGSV,4,4,14,48,11,286,35,51,30,308,41*73
1629321018860186 1629321018860 
$GLGSV,2,1,06,74,24,048,29,75,77,093,27,76,38,213,32,84,13,148,21*64
1629321018860195 1629321018860 
$GLGSV,2,2,06,85,72,154,37,86,53,324,32*63
1629321018860348 1629321018860 
$GNGLL,3849.70179,S,06804.16482,W,211019.00,A,A*7F
1629321019866935 1629321019866 
$GNRMC,211020.00,A,3849.70205,S,06804.16483,W,0.853,135.62,180821,,,A*74
1629321019866947 1629321019866 
$GNVTG,135.62,T,,M,0.853,N,1.580,K,A*22
1629321019866954 1629321019866 
$GNGGA,211020.00,3849.70205,S,06804.16483,W,1,12,0.70,279.4,M,22.7,M,,*42
1629321019866960 1629321019866 
$GNGSA,A,3,25,12,29,02,24,20,32,31,05,18,,,1.22,0.70,1.00*1D
1629321019868396 1629321019868 
$GNGSA,A,3,74,85,84,76,,,,,,,,,1.22,0.70,1.00*18
1629321019868566 1629321019868 
$GPGSV,4,1,14,02,36,127,35,05,07,059,29,06,05,146,23,12,51,096,32*71
1629321019868629 1629321019868 
$GPGSV,4,2,14,18,11,346,35,20,14,090,25,24,14,017,25,25,74,164,29*73
1629321019868772 1629321019868 
$GPGSV,4,3,14,29,65,270,38,31,26,226,43,32,12,289,35,46,14,289,34*7E
1629321019869197 1629321019869 
$GPGSV,4,4,14,48,11,286,30,51,30,308,41*76
1629321019869625 1629321019869 
$GLGSV,2,1,06,74,24,048,38,75,77,093,31,76,38,213,47,84,13,148,21*61
1629321019869641 1629321019869 
$GLGSV,2,2,06,85,72,154,36,86,53,324,35*65
1629321019869661 1629321019869 
$GNGLL,3849.70205,S,06804.16483,W,211020.00,A,A*7C
1629321020850957 1629321020850 
$GNRMC,211021.00,A,3849.70224,S,06804.16511,W,0.556,242.14,180821,,,A*76
1629321020850969 1629321020850 
$GNVTG,242.14,T,,M,0.556,N,1.030,K,A*26
1629321020850975 1629321020850 
$GNGGA,211021.00,3849.70224,S,06804.16511,W,1,12,0.70,278.8,M,22.7,M,,*47
1629321020850982 1629321020850 
$GNGSA,A,3,25,12,29,02,24,20,32,31,05,18,,,1.22,0.70,1.00*1D
1629321020851882 1629321020851 
$GNGSA,A,3,74,85,84,76,,,,,,,,,1.22,0.70,1.00*18
1629321020852476 1629321020852 
$GPGSV,4,1,14,02,36,127,32,05,07,059,23,06,05,146,23,12,51,096,29*76
1629321020852567 1629321020852 
$GPGSV,4,2,14,18,11,346,37,20,14,090,24,24,14,017,30,25,74,164,35*79
1629321020852635 1629321020852 
$GPGSV,4,3,14,29,65,270,44,31,26,226,44,32,12,289,36,46,14,289,27*73
1629321020852666 1629321020852 
$GPGSV,4,4,14,48,11,286,34,51,30,308,39*7D
1629321020853187 1629321020853 
$GLGSV,2,1,06,74,24,048,42,75,77,093,30,76,38,213,47,84,13,148,20*6C
1629321020853195 1629321020853 
$GLGSV,2,2,06,85,72,154,34,86,53,324,26*65
1629321020853244 1629321020853 
$GNGLL,3849.70224,S,06804.16511,W,211021.00,A,A*74
1629321021853163 1629321021853 
$GNRMC,211022.00,A,3849.70210,S,06804.16543,W,1.539,328.43,180821,,,A*72
1629321021853175 1629321021853 
$GNVTG,328.43,T,,M,1.539,N,2.850,K,A*2C
1629321021853181 1629321021853 
$GNGGA,211022.00,3849.70210,S,06804.16543,W,1,12,0.70,278.3,M,22.7,M,,*4F
1629321021853187 1629321021853 
$GNGSA,A,3,25,12,29,02,24,20,32,31,05,18,,,1.31,0.70,1.10*1E
1629321021853193 1629321021853 
$GNGSA,A,3,74,85,84,76,,,,,,,,,1.31,0.70,1.10*1B
1629321021853465 1629321021853 
$GPGSV,4,1,14,02,36,127,38,05,07,059,38,06,05,146,24,12,51,096,43*7D
1629321021853478 1629321021853 
$GPGSV,4,2,14,18,11,346,31,20,14,090,40,24,14,017,30,25,74,164,35*7D
1629321021853579 1629321021853 
$GPGSV,4,3,14,29,65,270,36,31,26,226,43,32,12,289,43,46,14,289,37*72
1629321021853599 1629321021853 
$GPGSV,4,4,14,48,11,286,34,51,30,308,43*70
1629321021855085 1629321021855 
$GLGSV,2,1,06,74,24,048,31,75,77,093,37,76,38,213,41,84,13,148,21*68
1629321021855096 1629321021855 
$GLGSV,2,2,06,85,72,154,35,86,53,324,16*67
1629321021855103 1629321021855 
$GNGLL,3849.70210,S,06804.16543,W,211022.00,A,A*77
1629321022864578 1629321022864 
$GNRMC,211023.00,A,3849.70202,S,06804.16582,W,0.824,326.86,180821,,,A*7A
1629321022864637 1629321022864 
$GNVTG,326.86,T,,M,0.824,N,1.525,K,A*27
1629321022865280 1629321022865 
$GNGGA,211023.00,3849.70202,S,06804.16582,W,1,12,0.70,277.9,M,22.7,M,,*45
1629321022865330 1629321022865 
$GNGSA,A,3,25,12,29,02,24,20,32,31,05,18,,,1.22,0.70,1.00*1D
1629321022865421 1629321022865 
$GNGSA,A,3,74,85,84,76,,,,,,,,,1.22,0.70,1.00*18
1629321022866508 1629321022866 
$GPGSV,4,1,14,02,36,127,33,05,07,059,28,06,05,146,,12,51,096,31*74
1629321022866604 1629321022866 
$GPGSV,4,2,14,18,11,346,26,20,14,090,33,24,14,017,29,25,74,164,32*70
1629321022866656 1629321022866 
$GPGSV,4,3,14,29,65,270,38,31,26,226,46,32,12,289,44,46,14,289,45*7B
1629321022866770 1629321022866 
$GPGSV,4,4,14,48,11,286,42,51,30,308,41*73
1629321022868484 1629321022868 
$GLGSV,2,1,07,67,00,213,,74,24,048,30,75,77,093,32,76,38,213,42*6F
1629321022868497 1629321022868 
$GLGSV,2,2,07,84,13,148,20,85,72,154,35,86,53,324,33*50
1629321022868553 1629321022868 
$GNGLL,3849.70202,S,06804.16582,W,211023.00,A,A*78
1629321023847244 1629321023847 
$GNRMC,211024.00,A,3849.70209,S,06804.16602,W,0.327,,180821,,,A*62
1629321023847346 1629321023847 
$GNVTG,,T,,M,0.327,N,0.606,K,A*3B
1629321023848616 1629321023848 
$GNGGA,211024.00,3849.70209,S,06804.16602,W,1,12,0.70,277.9,M,22.7,M,,*42
1629321023848690 1629321023848 
$GNGSA,A,3,25,12,29,02,24,20,32,31,05,18,,,1.23,0.70,1.00*1C
1629321023849278 1629321023849 
$GNGSA,A,3,74,85,84,76,,,,,,,,,1.23,0.70,1.00*19
1629321023849703 1629321023849 
$GPGSV,4,1,14,02,36,127,37,05,07,059,24,06,05,146,,12,51,096,46*7C
1629321023849801 1629321023849 
$GPGSV,4,2,14,18,11,346,27,20,14,090,37,24,14,017,28,25,74,164,30*76
1629321023850242 1629321023850 
$GPGSV,4,3,14,29,65,270,32,31,26,226,36,32,12,289,40,46,14,289,36*76
1629321023850307 1629321023850 
$GPGSV,4,4,14,48,11,286,39,51,30,308,33*7A
1629321023850695 1629321023850 
$GLGSV,2,1,07,67,00,213,,74,24,048,37,75,77,093,33,76,38,213,35*69
1629321023850704 1629321023850 
$GLGSV,2,2,07,84,13,148,21,85,72,154,30,86,53,324,27*51
1629321023851563 1629321023851 
$GNGLL,3849.70209,S,06804.16602,W,211024.00,A,A*7F
1629321024860094 1629321024860 
$GNRMC,211025.00,A,3849.70221,S,06804.16595,W,0.628,240.95,180821,,,A*7A
1629321024860106 1629321024860 
$GNVTG,240.95,T,,M,0.628,N,1.164,K,A*27
1629321024860112 1629321024860 
$GNGGA,211025.00,3849.70221,S,06804.16595,W,1,12,0.74,277.7,M,22.7,M,,*4E
1629321024860491 1629321024860 
$GNGSA,A,3,25,12,29,02,20,32,31,05,18,,,,1.25,0.74,1.00*18
1629321024860540 1629321024860 
$GNGSA,A,3,74,85,84,76,,,,,,,,,1.25,0.74,1.00*1B
1629321024862786 1629321024862 
$GPGSV,4,1,14,02,36,127,40,05,07,059,39,06,05,146,,12,51,096,42*74
1629321024862947 1629321024862 
$GPGSV,4,2,14,18,11,346,32,20,14,090,44,24,14,017,08,25,74,164,43*70
1629321024863055 1629321024863 
$GPGSV,4,3,14,29,65,270,32,31,26,226,28,32,12,289,36,46,14,289,28*77
1629321024863092 1629321024863 
$GPGSV,4,4,14,48,11,286,30,51,30,308,35*75
1629321024863484 1629321024863 
$GLGSV,2,1,07,67,00,213,,74,24,048,35,75,77,093,33,76,38,213,35*6B
1629321024863497 1629321024863 
$GLGSV,2,2,07,84,13,148,22,85,72,154,30,86,53,324,28*5D
1629321024863549 1629321024863 
$GNGLL,3849.70221,S,06804.16595,W,211025.00,A,A*79
1629321025860532 1629321025860 
$GNRMC,211026.00,A,3849.70219,S,06804.16593,W,0.046,,180821,,,A*6E
1629321025860544 1629321025860 
$GNVTG,,T,,M,0.046,N,0.085,K,A*32
1629321025860550 1629321025860 
$GNGGA,211026.00,3849.70219,S,06804.16593,W,1,12,0.84,277.4,M,22.7,M,,*4C
1629321025860595 1629321025860 
$GNGSA,A,3,25,12,29,02,24,20,32,31,05,18,,,1.32,0.84,1.02*15
1629321025860636 1629321025860 
$GNGSA,A,3,74,85,84,76,,,,,,,,,1.32,0.84,1.02*10
1629321025863460 1629321025863 
$GPGSV,4,1,14,02,36,127,42,05,07,059,40,06,05,146,29,12,51,096,46*77
1629321025863473 1629321025863 
$GPGSV,4,2,14,18,11,346,35,20,14,090,42,24,14,017,14,25,74,164,41*7E
1629321025863482 1629321025863 
$GPGSV,4,3,14,29,65,270,27,31,26,226,28,32,12,289,36,46,14,289,29*72
1629321025863487 1629321025863 
$GPGSV,4,4,14,48,11,286,27,51,30,308,36*70
1629321025863581 1629321025863 
$GLGSV,2,1,07,67,00,213,,74,24,048,29,75,77,093,30,76,38,213,32*62
1629321025863631 1629321025863 
$GLGSV,2,2,07,84,13,148,23,85,72,154,34,86,53,324,28*58
1629321025863678 1629321025863 
$GNGLL,3849.70219,S,06804.16593,W,211026.00,A,A*77
1629321026858339 1629321026858 
$GNRMC,211027.00,A,3849.70232,S,06804.16572,W,0.065,,180821,,,A*68
1629321026858414 1629321026858 
$GNVTG,,T,,M,0.065,N,0.121,K,A*3C
1629321026858561 1629321026858 
$GNGGA,211027.00,3849.70232,S,06804.16572,W,1,12,0.74,277.1,M,22.7,M,,*41
1629321026858676 1629321026858 
$GNGSA,A,3,25,12,29,02,24,20,32,31,05,18,,,1.25,0.74,1.00*1E
1629321026858785 1629321026858 
$GNGSA,A,3,74,85,84,76,,,,,,,,,1.25,0.74,1.00*1B
1629321026860145 1629321026860 
$GPGSV,4,1,14,02,36,127,39,05,07,059,41,06,05,146,28,12,51,096,44*79
1629321026860342 1629321026860 
$GPGSV,4,2,14,18,11,346,35,20,14,090,42,24,14,017,19,25,74,164,41*73
1629321026860387 1629321026860 
$GPGSV,4,3,14,29,65,270,26,31,26,226,29,32,12,289,37,46,14,289,27*7D
1629321026860424 1629321026860 
$GPGSV,4,4,14,48,11,286,27,51,30,308,35*73
1629321026862148 1629321026862 
$GLGSV,2,1,07,67,00,213,,74,24,048,31,75,77,093,30,76,38,213,32*6B
1629321026862160 1629321026862 
$GLGSV,2,2,07,84,13,148,26,85,72,154,34,86,53,324,27*52
1629321026862981 1629321026862 
$GNGLL,3849.70232,S,06804.16572,W,211027.00,A,A*70
1629321027854539 1629321027854 
$GNRMC,211028.00,A,3849.70244,S,06804.16553,W,0.060,,180821,,,A*60
1629321027854554 1629321027854 
$GNVTG,,T,,M,0.060,N,0.112,K,A*39
1629321027854775 1629321027854 
$GNGGA,211028.00,3849.70244,S,06804.16553,W,1,12,0.70,276.6,M,22.7,M,,*4E
1629321027855463 1629321027855 
$GNGSA,A,3,25,12,29,02,24,20,32,31,05,18,,,1.23,0.70,1.00*1C
1629321027855576 1629321027855 
$GNGSA,A,3,74,85,84,76,,,,,,,,,1.23,0.70,1.00*19
1629321027856744 1629321027856 
$GPGSV,4,1,13,02,36,127,38,05,07,059,41,06,05,146,28,12,51,096,45*7E
1629321027857446 1629321027857 
$GPGSV,4,2,13,18,11,346,34,20,14,090,40,24,14,017,19,25,74,164,41*77
1629321027857599 1629321027857 
$GPGSV,4,3,13,29,65,270,24,31,26,226,29,32,12,289,35,46,14,289,27*7A
1629321027857660 1629321027857 
$GPGSV,4,4,13,51,30,308,36*42
1629321027858646 1629321027858 
$GLGSV,2,1,07,67,00,213,,74,24,048,32,75,77,093,29,76,38,213,33*61
1629321027858753 1629321027858 
$GLGSV,2,2,07,84,13,148,27,85,72,154,33,86,53,324,27*54
1629321027858907 1629321027858 
$GNGLL,3849.70244,S,06804.16553,W,211028.00,A,A*7D
1629321028853849 1629321028853 
$GNRMC,211029.00,A,3849.70243,S,06804.16558,W,0.166,,180821,,,A*6A
1629321028853861 1629321028853 
$GNVTG,,T,,M,0.166,N,0.307,K,A*38
1629321028853866 1629321028853 
$GNGGA,211029.00,3849.70243,S,06804.16558,W,1,12,0.77,276.5,M,22.7,M,,*47
1629321028853873 1629321028853 
$GNGSA,A,3,25,12,29,02,24,20,32,31,05,18,,,1.29,0.77,1.04*15
1629321028853879 1629321028853 
$GNGSA,A,3,74,85,84,76,,,,,,,,,1.29,0.77,1.04*10
1629321028855223 1629321028855 
$GPGSV,4,1,13,02,36,127,45,05,07,059,41,06,05,146,27,12,51,096,47*79
1629321028855419 1629321028855 
$GPGSV,4,2,13,18,11,346,33,20,14,090,39,24,14,017,22,25,74,164,40*77
1629321028855530 1629321028855 
$GPGSV,4,3,13,29,65,270,30,31,26,226,29,32,12,289,36,46,14,289,32*78
1629321028855579 1629321028855 
$GPGSV,4,4,13,51,30,308,36*42
1629321028857231 1629321028857 
$GLGSV,2,1,07,67,00,213,,74,24,048,26,75,77,093,33,76,38,213,31*6D
1629321028857464 1629321028857 
$GLGSV,2,2,07,84,13,148,27,85,72,154,37,86,53,324,27*50
1629321028857508 1629321028857 
$GNGLL,3849.70243,S,06804.16558,W,211029.00,A,A*70
1629321029873272 1629321029873 
$GNRMC,211030.00,A,3849.70256,S,06804.16586,W,1.430,232.01,180821,,,A*7E
1629321029873284 1629321029873 
$GNVTG,232.01,T,,M,1.430,N,2.648,K,A*2F
1629321029873290 1629321029873 
$GNGGA,211030.00,3849.70256,S,06804.16586,W,1,12,0.70,276.6,M,22.7,M,,*4C
1629321029873296 1629321029873 
$GNGSA,A,3,25,12,29,02,24,20,32,31,05,18,,,1.23,0.70,1.00*1C
1629321029873303 1629321029873 
$GNGSA,A,3,74,85,84,76,,,,,,,,,1.23,0.70,1.00*19
1629321029873575 1629321029873 
$GPGSV,4,1,13,02,36,127,37,05,07,059,45,06,05,146,25,12,51,096,45*78
1629321029873596 1629321029873 
$GPGSV,4,2,13,18,11,346,31,20,14,090,36,24,14,017,30,25,74,164,42*7B
1629321029873780 1629321029873 
$GPGSV,4,3,13,29,65,270,31,31,26,226,26,32,12,289,36,46,14,289,33*77
1629321029873787 1629321029873 
$GPGSV,4,4,13,51,30,308,43*40
1629321029874910 1629321029874 
$GLGSV,2,1,07,67,00,213,,74,24,048,41,75,77,093,39,76,38,213,33*64
1629321029875415 1629321029875 
$GLGSV,2,2,07,84,13,148,26,85,72,154,42,86,53,324,29*5D
1629321029875489 1629321029875 
$GNGLL,3849.70256,S,06804.16586,W,211030.00,A,A*7F
1629321030863047 1629321030863 
$GNRMC,211031.00,A,3849.70289,S,06804.16608,W,1.662,210.03,180821,,,A*7F
1629321030863059 1629321030863 
$GNVTG,210.03,T,,M,1.662,N,3.079,K,A*2D
1629321030863139 1629321030863 
$GNGGA,211031.00,3849.70289,S,06804.16608,W,1,12,0.70,276.9,M,22.7,M,,*45
1629321030863233 1629321030863 
$GNGSA,A,3,25,12,29,02,24,20,32,31,05,18,,,1.23,0.70,1.00*1C
1629321030863277 1629321030863 
$GNGSA,A,3,74,85,84,76,,,,,,,,,1.23,0.70,1.00*19
1629321030863652 1629321030863 
$GPGSV,4,1,13,02,36,127,42,05,07,059,43,06,05,146,24,12,51,096,45*7D
1629321030863924 1629321030863 
$GPGSV,4,2,13,18,11,346,30,20,14,090,32,24,14,017,31,25,74,164,39*73
1629321030864471 1629321030864 
$GPGSV,4,3,13,29,65,270,38,31,26,226,33,32,12,289,33,46,14,289,32*7E
1629321030864479 1629321030864 
$GPGSV,4,4,13,51,30,308,33*47
1629321030865310 1629321030865 
$GLGSV,2,1,07,67,00,213,,74,24,048,29,75,77,093,34,76,38,213,35*61
1629321030865364 1629321030865 
$GLGSV,2,2,07,84,13,148,24,85,72,154,36,86,53,324,20*55
1629321030865422 1629321030865 
$GNGLL,3849.70289,S,06804.16608,W,211031.00,A,A*79
1629321031855533 1629321031855 
$GNRMC,211032.00,A,3849.70318,S,06804.16624,W,1.490,204.01,180821,,,A*73
1629321031855625 1629321031855 
$GNVTG,204.01,T,,M,1.490,N,2.759,K,A*21
1629321031856985 1629321031856 
$GNGGA,211032.00,3849.70318,S,06804.16624,W,1,12,0.74,277.3,M,22.7,M,,*4E
1629321031856998 1629321031856 
$GNGSA,A,3,25,12,29,02,24,20,32,31,05,18,,,1.25,0.74,1.00*1E
1629321031857004 1629321031857 
$GNGSA,A,3,74,85,84,76,,,,,,,,,1.25,0.74,1.00*1B
1629321031858572 1629321031858 
$GPGSV,4,1,13,02,36,127,39,05,07,059,44,06,05,146,23,12,51,096,45*71
1629321031858651 1629321031858 
$GPGSV,4,2,13,18,11,346,38,20,14,090,28,24,14,017,40,25,74,164,41*79
1629321031859234 1629321031859 
$GPGSV,4,3,13,29,65,270,32,31,26,226,36,32,12,289,31,46,14,289,28*78
1629321031859296 1629321031859 
$GPGSV,4,4,13,51,30,308,41*42
1629321031860115 1629321031860 
$GLGSV,2,1,07,67,00,213,,74,24,048,40,75,77,093,40,76,38,213,38*60
1629321031860182 1629321031860 
$GLGSV,2,2,07,84,13,148,25,85,72,154,35,86,53,324,30*56
1629321031860324 1629321031860 
$GNGLL,3849.70318,S,06804.16624,W,211032.00,A,A*7D
1629321032849983 1629321032849 
$GNRMC,211033.00,A,3849.70348,S,06804.16658,W,1.574,211.52,180821,,,A*75
1629321032849995 1629321032849 
$GNVTG,211.52,T,,M,1.574,N,2.915,K,A*2E
1629321032850001 1629321032850 
$GNGGA,211033.00,3849.70348,S,06804.16658,W,1,12,0.70,277.7,M,22.7,M,,*41
1629321032850264 1629321032850 
$GNGSA,A,3,25,12,29,02,24,20,32,31,05,18,,,1.23,0.70,1.00*1C
1629321032850375 1629321032850 
$GNGSA,A,3,74,85,84,76,,,,,,,,,1.23,0.70,1.00*19
1629321032851549 1629321032851 
$GPGSV,4,1,13,02,36,127,39,05,07,059,42,06,05,146,26,12,51,096,46*71
1629321032851594 1629321032851 
$GPGSV,4,2,13,18,11,346,40,20,14,090,36,24,14,017,34,25,74,164,38*74
1629321032852130 1629321032852 
$GPGSV,4,3,13,29,65,270,32,31,26,226,34,32,12,289,32,46,14,289,31*71
1629321032852219 1629321032852 
$GPGSV,4,4,13,51,30,308,36*42
1629321032852610 1629321032852 
$GLGSV,2,1,07,67,00,213,,74,24,048,43,75,77,093,29,76,38,213,38*6C
1629321032852661 1629321032852 
$GLGSV,2,2,07,84,13,148,25,85,72,154,37,86,53,324,27*52
1629321032852835 1629321032852 
$GNGLL,3849.70348,S,06804.16658,W,211033.00,A,A*72
1629321033854829 1629321033854 
$GNRMC,211034.00,A,3849.70355,S,06804.16706,W,1.644,232.22,180821,,,A*72
1629321033854841 1629321033854 
$GNVTG,232.22,T,,M,1.644,N,3.045,K,A*25
1629321033854847 1629321033854 
$GNGGA,211034.00,3849.70355,S,06804.16706,W,1,12,0.70,278.4,M,22.7,M,,*4C
1629321033854853 1629321033854 
$GNGSA,A,3,25,12,29,02,24,20,32,31,05,18,,,1.23,0.70,1.00*1C
1629321033854860 1629321033854 
$GNGSA,A,3,74,85,84,76,,,,,,,,,1.23,0.70,1.00*19
1629321033856116 1629321033856 
$GPGSV,4,1,13,02,36,127,34,05,07,059,42,06,05,146,25,12,51,096,49*70
1629321033856128 1629321033856 
$GPGSV,4,2,13,18,11,346,42,20,14,090,36,24,14,017,35,25,74,164,38*77
1629321033856394 1629321033856 
$GPGSV,4,3,13,29,65,270,33,31,26,226,37,32,12,289,31,46,14,289,30*71
1629321033856497 1629321033856 
$GPGSV,4,4,13,51,30,308,35*41
1629321033857450 1629321033857 
$GLGSV,2,1,07,67,00,213,,74,24,048,38,75,77,093,32,76,38,213,38*6A
1629321033857458 1629321033857 
$GLGSV,2,2,07,84,13,148,24,85,72,154,34,86,53,324,28*5F
1629321033857506 1629321033857 
$GNGLL,3849.70355,S,06804.16706,W,211034.00,A,A*73
1629321034850975 1629321034850 
$GNRMC,211035.00,A,3849.70389,S,06804.16761,W,1.798,231.15,180821,,,A*74
1629321034850988 1629321034850 
$GNVTG,231.15,T,,M,1.798,N,3.329,K,A*2B
1629321034850994 1629321034850 
$GNGGA,211035.00,3849.70389,S,06804.16761,W,1,12,0.78,278.7,M,22.7,M,,*46
1629321034851000 1629321034850 
$GNGSA,A,3,25,12,29,02,24,20,32,31,05,18,,,1.33,0.78,1.07*12
1629321034851590 1629321034851 
$GNGSA,A,3,74,85,84,76,,,,,,,,,1.33,0.78,1.07*17
1629321034852149 1629321034852 
$GPGSV,4,1,13,02,36,127,38,05,07,059,37,06,05,146,,12,51,096,47*77
1629321034852212 1629321034852 
$GPGSV,4,2,13,18,11,346,45,20,14,090,42,24,14,017,40,25,74,164,41*7F
1629321034852285 1629321034852 
$GPGSV,4,3,13,29,65,270,32,31,26,226,24,32,12,289,36,46,14,289,31*74
1629321034852314 1629321034852 
$GPGSV,4,4,13,51,30,308,42*41
1629321034852619 1629321034852 
$GLGSV,2,1,07,67,00,213,,74,24,047,36,75,77,093,32,76,38,213,38*6B
1629321034852654 1629321034852 
$GLGSV,2,2,07,84,13,148,22,85,72,154,33,86,53,324,27*51
1629321034852760 1629321034852 
$GNGLL,3849.70389,S,06804.16761,W,211035.00,A,A*72
1629321035844925 1629321035844 
$GNRMC,211036.00,A,3849.70410,S,06804.16802,W,1.159,241.63,180821,,,A*77
1629321035844937 1629321035844 
$GNVTG,241.63,T,,M,1.159,N,2.147,K,A*2D
1629321035844943 1629321035844 
$GNGGA,211036.00,3849.70410,S,06804.16802,W,1,12,0.70,278.8,M,22.7,M,,*4F
1629321035844950 1629321035844 
$GNGSA,A,3,25,12,29,02,24,20,32,31,05,18,,,1.23,0.70,1.00*1C
1629321035845913 1629321035845 
$GNGSA,A,3,74,85,84,76,,,,,,,,,1.23,0.70,1.00*19
1629321035846643 1629321035846 
$GPGSV,4,1,13,02,36,127,43,05,07,059,37,06,05,146,,12,51,096,51*7C
1629321035846763 1629321035846 
$GPGSV,4,2,13,18,11,346,46,20,14,090,35,24,14,017,45,25,74,164,40*78
1629321035847365 1629321035847 
$GPGSV,4,3,13,29,65,270,33,31,26,226,32,32,12,289,33,46,14,289,36*70
1629321035847502 1629321035847 
$GPGSV,4,4,13,51,30,308,35*41
1629321035848892 1629321035848 
$GLGSV,2,1,07,67,00,213,,74,24,047,38,75,77,091,31,76,38,213,35*69
1629321035848904 1629321035848 
$GLGSV,2,2,07,84,13,148,20,85,72,154,39,86,53,324,29*57
1629321035848911 1629321035848 
$GNGLL,3849.70410,S,06804.16802,W,211036.00,A,A*7C
1629321036850813 1629321036850 
$GNRMC,211037.00,A,3849.70413,S,06804.16812,W,0.158,,180821,,,A*68
1629321036851492 1629321036851 
$GNVTG,,T,,M,0.158,N,0.292,K,A*38
1629321036852542 1629321036852 
$GNGGA,211037.00,3849.70413,S,06804.16812,W,1,12,0.70,278.8,M,22.7,M,,*4C
1629321036852941 1629321036852 
$GNGSA,A,3,25,12,29,02,24,20,32,31,05,18,,,1.23,0.70,1.00*1C
1629321036853026 1629321036853 
$GNGSA,A,3,74,85,84,76,,,,,,,,,1.23,0.70,1.00*19
1629321036853434 1629321036853 
$GPGSV,4,1,13,02,36,127,44,05,07,059,37,06,05,146,,12,51,096,50*7A
1629321036853476 1629321036853 
$GPGSV,4,2,13,18,11,346,44,20,14,090,40,24,14,017,34,25,74,164,40*7E
1629321036853568 1629321036853 
$GPGSV,4,3,13,29,65,270,26,31,26,226,30,32,12,289,27,46,14,289,32*77
1629321036853576 1629321036853 
$GPGSV,4,4,13,51,30,308,31*45
1629321036854525 1629321036854 
$GLGSV,2,1,07,67,00,213,,74,24,047,30,75,77,091,31,76,38,213,31*65
1629321036854534 1629321036854 
$GLGSV,2,2,07,84,13,148,18,85,72,154,33,86,53,324,28*57
1629321036854596 1629321036854 
$GNGLL,3849.70413,S,06804.16812,W,211037.00,A,A*7F
1629321037856222 1629321037856 
$GNRMC,211038.00,A,3849.70411,S,06804.16815,W,0.076,,180821,,,A*6F
1629321037856241 1629321037856 
$GNVTG,,T,,M,0.076,N,0.141,K,A*38
1629321037856499 1629321037856 
$GNGGA,211038.00,3849.70411,S,06804.16815,W,1,12,0.70,278.8,M,22.7,M,,*46
1629321037856580 1629321037856 
$GNGSA,A,3,25,12,29,02,24,20,32,31,05,18,,,1.23,0.70,1.00*1C
1629321037856808 1629321037856 
$GNGSA,A,3,74,85,84,76,,,,,,,,,1.23,0.70,1.00*19
1629321037858298 1629321037858 
$GPGSV,4,1,13,02,36,127,45,05,07,059,36,06,05,146,,12,51,096,50*7A
1629321037858318 1629321037858 
$GPGSV,4,2,13,18,11,346,43,20,14,090,40,24,14,017,40,25,74,164,39*74
1629321037858468 1629321037858 
$GPGSV,4,3,13,29,65,270,28,31,26,226,31,32,12,289,28,46,14,289,30*75
1629321037858508 1629321037858 
$GPGSV,4,4,13,51,30,308,32*46
1629321037859778 1629321037859 
$GLGSV,2,1,07,67,00,213,,74,24,047,35,75,77,091,32,76,38,213,23*60
1629321037859789 1629321037859 
$GLGSV,2,2,07,84,13,148,16,85,72,154,39,86,53,324,24*5F
1629321037860461 1629321037860 
$GNGLL,3849.70411,S,06804.16815,W,211038.00,A,A*75
1629321038853600 1629321038853 
$GNRMC,211039.00,A,3849.70399,S,06804.16816,W,0.040,,180821,,,A*6F
1629321038853616 1629321038853 
$GNVTG,,T,,M,0.040,N,0.075,K,A*3B
1629321038854122 1629321038854 
$GNGGA,211039.00,3849.70399,S,06804.16816,W,1,12,0.70,279.0,M,22.7,M,,*4A
1629321038854338 1629321038854 
$GNGSA,A,3,25,12,29,02,24,20,32,31,05,18,,,1.23,0.70,1.00*1C
1629321038854382 1629321038854 
$GNGSA,A,3,74,85,84,76,,,,,,,,,1.23,0.70,1.00*19
1629321038855467 1629321038855 
$GPGSV,4,1,13,02,36,127,46,05,07,059,38,06,05,146,,12,51,096,50*77
1629321038855559 1629321038855 
$GPGSV,4,2,13,18,11,346,43,20,14,090,36,24,14,017,38,25,74,164,40*74
1629321038855692 1629321038855 
$GPGSV,4,3,13,29,65,270,28,31,26,226,30,32,12,289,28,46,14,289,30*74
1629321038855744 1629321038855 
$GPGSV,4,4,13,51,30,308,33*47
1629321038856724 1629321038856 
$GLGSV,2,1,07,67,00,213,,74,24,047,33,75,77,091,30,76,38,213,22*65
1629321038857126 1629321038857 
$GLGSV,2,2,07,84,13,148,15,85,72,154,38,86,53,324,20*59
1629321038857258 1629321038857 
$GNGLL,3849.70399,S,06804.16816,W,211039.00,A,A*70
1629321039858402 1629321039858 
$GNRMC,211040.00,A,3849.70406,S,06804.16812,W,0.168,,180821,,,A*6F
1629321039858414 1629321039858 
$GNVTG,,T,,M,0.168,N,0.311,K,A*31
1629321039858636 1629321039858 
$GNGGA,211040.00,3849.70406,S,06804.16812,W,1,12,0.82,279.1,M,22.7,M,,*4D
1629321039858660 1629321039858 
$GNGSA,A,3,25,12,29,02,24,20,32,31,05,18,,,1.43,0.82,1.17*11
1629321039858829 1629321039858 
$GNGSA,A,3,74,85,76,,,,,,,,,,1.43,0.82,1.17*18
1629321039860447 1629321039860 
$GPGSV,4,1,13,02,36,127,39,05,07,059,30,06,05,146,,12,51,096,50*77
1629321039860508 1629321039860 
$GPGSV,4,2,13,18,11,346,43,20,14,090,40,24,14,017,42,25,74,164,40*78
1629321039860593 1629321039860 
$GPGSV,4,3,13,29,65,270,34,31,26,226,30,32,12,289,29,46,14,289,30*78
1629321039860599 1629321039860 
$GPGSV,4,4,13,51,30,308,33*47
1629321039862975 1629321039862 
$GLGSV,2,1,07,67,00,213,,74,24,047,34,75,77,091,35,76,38,213,30*64
1629321039862981 1629321039862 
$GLGSV,2,2,07,84,13,148,12,85,72,154,38,86,53,324,17*5A
1629321039863048 1629321039863 
$GNGLL,3849.70406,S,06804.16812,W,211040.00,A,A*7B
1629321040850913 1629321040850 
$GNRMC,211041.00,A,3849.70419,S,06804.16856,W,1.867,250.20,180821,,,A*7C
1629321040850925 1629321040850 
$GNVTG,250.20,T,,M,1.867,N,3.457,K,A*2B
1629321040850931 1629321040850 
$GNGGA,211041.00,3849.70419,S,06804.16856,W,1,12,0.82,279.1,M,22.7,M,,*42
1629321040850937 1629321040850 
$GNGSA,A,3,25,12,29,02,24,20,32,31,05,18,,,1.43,0.82,1.17*11
1629321040851508 1629321040851 
$GNGSA,A,3,74,85,76,,,,,,,,,,1.43,0.82,1.17*18
1629321040852080 1629321040852 
$GPGSV,4,1,13,02,36,127,37,05,07,059,44,06,05,146,,12,51,096,45*7E
1629321040852093 1629321040852 
$GPGSV,4,2,13,18,11,346,49,20,14,090,42,24,14,017,40,25,74,164,46*74
1629321040852193 1629321040852 
$GPGSV,4,3,13,29,65,270,33,31,26,226,37,32,12,289,34,46,14,289,*77
1629321040852203 1629321040852 
$GPGSV,4,4,13,51,30,308,40*43
1629321040852532 1629321040852 
$GLGSV,2,1,07,67,00,213,,74,24,047,37,75,77,091,40,76,38,213,38*6D
1629321040852538 1629321040852 
$GLGSV,2,2,07,84,13,148,13,85,72,154,41,86,53,324,21*50
1629321040852603 1629321040852 
$GNGLL,3849.70419,S,06804.16856,W,211041.00,A,A*74
1629321041863563 1629321041863 
$GNRMC,211042.00,A,3849.70446,S,06804.16915,W,2.193,238.13,180821,,,A*7C
1629321041863603 1629321041863 
$GNVTG,238.13,T,,M,2.193,N,4.061,K,A*22
1629321041863609 1629321041863 
$GNGGA,211042.00,3849.70446,S,06804.16915,W,1,12,0.70,279.5,M,22.7,M,,*44
1629321041863615 1629321041863 
$GNGSA,A,3,25,12,29,02,24,20,32,31,05,18,,,1.23,0.70,1.00*1C
1629321041863621 1629321041863 
$GNGSA,A,3,74,85,84,76,,,,,,,,,1.23,0.70,1.00*19
1629321041864196 1629321041864 
$GPGSV,4,1,13,02,36,127,43,05,07,059,43,06,05,146,,12,51,096,46*79
1629321041864293 1629321041864 
$GPGSV,4,2,13,18,11,346,43,20,14,090,38,24,14,017,34,25,74,164,45*73
1629321041864393 1629321041864 
$GPGSV,4,3,13,29,65,270,35,31,26,226,34,32,12,289,33,46,14,289,34*72
1629321041864419 1629321041864 
$GPGSV,4,4,13,51,30,308,43*40
1629321041865290 1629321041865 
$GLGSV,2,1,07,67,00,213,,74,24,047,36,75,77,091,31,76,38,213,34*66
1629321041865302 1629321041865 
$GLGSV,2,2,07,84,13,148,17,85,72,154,30,86,53,324,31*53
1629321041865360 1629321041865 
$GNGLL,3849.70446,S,06804.16915,W,211042.00,A,A*7B
1629321042846491 1629321042846 
$GNRMC,211043.00,A,3849.70500,S,06804.16985,W,2.190,237.00,180821,,,A*79
1629321042846593 1629321042846 
$GNVTG,237.00,T,,M,2.190,N,4.055,K,A*2B
1629321042846923 1629321042846 
$GNGGA,211043.00,3849.70500,S,06804.16985,W,1,12,0.70,279.3,M,22.7,M,,*49
1629321042848817 1629321042848 
$GNGSA,A,3,25,12,29,02,24,20,32,31,05,18,,,1.23,0.70,1.00*1C
1629321042848829 1629321042848 
$GNGSA,A,3,74,85,84,76,,,,,,,,,1.23,0.70,1.00*19
1629321042849049 1629321042849 
$GPGSV,4,1,13,02,36,127,38,05,07,059,45,06,05,146,,12,51,096,48*7D
1629321042849136 1629321042849 
$GPGSV,4,2,13,18,11,346,34,20,14,090,35,24,14,017,41,25,74,164,36*78
1629321042849273 1629321042849 
$GPGSV,4,3,13,29,65,270,32,31,26,226,35,32,12,289,33,46,14,289,36*76
1629321042849290 1629321042849 
$GPGSV,4,4,13,51,30,308,43*40
1629321042849747 1629321042849 
$GLGSV,2,1,07,67,00,213,,74,24,047,32,75,77,091,33,76,38,213,41*62
1629321042849766 1629321042849 
$GLGSV,2,2,07,84,13,148,19,85,72,154,32,86,53,324,31*5F
1629321042849926 1629321042849 
$GNGLL,3849.70500,S,06804.16985,W,211043.00,A,A*70
1629321043845664 1629321043845 
$GNRMC,211044.00,A,3849.70552,S,06804.17055,W,2.666,226.60,180821,,,A*74
1629321043845676 1629321043845 
$GNVTG,226.60,T,,M,2.666,N,4.937,K,A*2E
1629321043847081 1629321043847 
$GNGGA,211044.00,3849.70552,S,06804.17055,W,1,12,0.74,279.4,M,22.7,M,,*4F
1629321043847093 1629321043847 
$GNGSA,A,3,25,12,29,02,24,20,32,31,05,18,,,1.25,0.74,1.00*1E
1629321043848376 1629321043848 
$GNGSA,A,3,74,85,84,76,,,,,,,,,1.25,0.74,1.00*1B
1629321043848989 1629321043848 
$GPGSV,4,1,13,02,36,127,43,05,07,059,49,06,05,146,,12,51,096,45*70
1629321043848995 1629321043848 
$GPGSV,4,2,13,18,11,346,34,20,14,090,49,24,14,017,41,25,74,164,43*71
1629321043849098 1629321043849 
$GPGSV,4,3,13,29,65,270,32,31,26,226,36,32,12,289,32,46,14,289,35*77
1629321043849104 1629321043849 
$GPGSV,4,4,13,51,30,308,34*40
1629321043849358 1629321043849 
$GLGSV,2,1,07,67,00,213,,74,24,047,31,75,77,091,39,76,38,213,41*6B
1629321043849365 1629321043849 
$GLGSV,2,2,07,84,13,148,21,85,72,154,36,86,53,324,20*50
1629321043849423 1629321043849 
$GNGLL,3849.70552,S,06804.17055,W,211044.00,A,A*75
1629321044848936 1629321044848 
$GNRMC,211045.00,A,3849.70604,S,06804.17104,W,2.347,218.75,180821,,,A*7F
1629321044848948 1629321044848 
$GNVTG,218.75,T,,M,2.347,N,4.346,K,A*2D
1629321044848954 1629321044848 
$GNGGA,211045.00,3849.70604,S,06804.17104,W,1,12,0.78,279.6,M,22.7,M,,*45
1629321044848960 1629321044848 
$GNGSA,A,3,25,12,29,02,24,20,31,05,18,,,,1.33,0.78,1.07*13
1629321044848967 1629321044848 
$GNGSA,A,3,74,85,84,76,,,,,,,,,1.33,0.78,1.07*17
1629321044849249 1629321044849 
$GPGSV,4,1,13,02,36,127,44,05,07,059,44,06,05,146,,12,51,096,46*79
1629321044849285 1629321044849 
$GPGSV,4,2,13,18,11,346,32,20,14,090,43,24,14,017,46,25,74,164,47*7E
1629321044849377 1629321044849 
$GPGSV,4,3,13,29,65,270,33,31,26,226,36,32,12,289,35,46,14,289,31*75
1629321044849383 1629321044849 
$GPGSV,4,4,13,51,30,308,41*42
1629321044849736 1629321044849 
$GLGSV,2,1,07,67,00,213,,74,24,047,31,75,77,091,37,76,38,213,38*6B
1629321044849771 1629321044849 
$GLGSV,2,2,07,84,12,148,21,85,72,154,36,86,53,324,25*54
1629321044850200 1629321044850 
$GNGLL,3849.70604,S,06804.17104,W,211045.00,A,A*71
1629321045847110 1629321045847 
$GNRMC,211046.00,A,3849.70667,S,06804.17159,W,2.587,220.14,180821,,,A*77
1629321045847122 1629321045847 
$GNVTG,220.14,T,,M,2.587,N,4.791,K,A*25
1629321045848667 1629321045848 
$GNGGA,211046.00,3849.70667,S,06804.17159,W,1,12,0.70,279.6,M,22.7,M,,*43
1629321045848679 1629321045848 
$GNGSA,A,3,25,12,29,02,24,20,32,31,05,18,,,1.23,0.70,1.00*1C
1629321045848686 1629321045848 
$GNGSA,A,3,74,85,84,76,,,,,,,,,1.23,0.70,1.00*19
1629321045849079 1629321045849 
$GPGSV,4,1,13,02,36,127,46,05,07,059,42,06,05,146,,12,51,096,44*7F
1629321045849107 1629321045849 
$GPGSV,4,2,13,18,11,346,26,20,14,090,38,24,14,017,35,25,74,164,34*77
1629321045849190 1629321045849 
$GPGSV,4,3,13,29,65,270,33,31,26,226,33,32,12,289,35,46,14,289,30*71
1629321045849219 1629321045849 
$GPGSV,4,4,13,51,30,308,32*46
1629321045849578 1629321045849 
$GLGSV,2,1,07,67,00,213,,74,24,047,31,75,77,091,29,76,38,213,39*65
1629321045849590 1629321045849 
$GLGSV,2,2,07,84,12,148,21,85,72,154,32,86,53,324,27*52
1629321045849640 1629321045849 
$GNGLL,3849.70667,S,06804.17159,W,211046.00,A,A*7F
1629321046863905 1629321046863 
$GNRMC,211047.00,A,3849.70694,S,06804.17202,W,1.416,226.76,180821,,,A*7F
1629321046863917 1629321046863 
$GNVTG,226.76,T,,M,1.416,N,2.622,K,A*22
1629321046863923 1629321046863 
$GNGGA,211047.00,3849.70694,S,06804.17202,W,1,12,0.70,279.9,M,22.7,M,,*4C
1629321046863929 1629321046863 
$GNGSA,A,3,25,12,29,02,24,20,32,31,05,18,,,1.23,0.70,1.00*1C
1629321046863936 1629321046863 
$GNGSA,A,3,74,85,84,76,,,,,,,,,1.23,0.70,1.00*19
1629321046864957 1629321046864 
$GPGSV,4,1,13,02,36,127,43,05,07,059,43,06,05,146,,12,51,096,47*78
1629321046865234 1629321046865 
$GPGSV,4,2,13,18,11,346,31,20,14,090,51,24,14,017,31,25,74,164,41*78
1629321046865248 1629321046865 
$GPGSV,4,3,13,29,65,270,34,31,26,226,33,32,12,289,32,46,14,289,35*74
1629321046865340 1629321046865 
$GPGSV,4,4,13,51,30,308,36*42
1629321046866537 1629321046866 
$GLGSV,2,1,07,67,00,213,,74,24,047,36,75,77,091,34,76,38,213,36*61
1629321046866610 1629321046866 
$GLGSV,2,2,07,84,12,148,20,85,72,154,31,86,53,324,28*5F
1629321046866772 1629321046866 
$GNGLL,3849.70694,S,06804.17202,W,211047.00,A,A*7F
1629321047874084 1629321047874 
$GNRMC,211048.00,A,3849.70726,S,06804.17250,W,1.575,229.39,180821,,,A*7F
1629321047874096 1629321047874 
$GNVTG,229.39,T,,M,1.575,N,2.917,K,A*2B
1629321047874572 1629321047874 
$GNGGA,211048.00,3849.70726,S,06804.17250,W,1,12,0.70,279.7,M,22.7,M,,*42
1629321047874796 1629321047874 
$GNGSA,A,3,25,12,29,02,24,20,32,31,05,18,,,1.23,0.70,1.00*1C
1629321047874808 1629321047874 
$GNGSA,A,3,74,85,84,76,,,,,,,,,1.23,0.70,1.00*19
1629321047876336 1629321047876 
$GPGSV,4,1,13,02,36,127,41,05,07,059,36,06,05,146,,12,51,096,47*78
1629321047876426 1629321047876 
$GPGSV,4,2,13,18,11,346,27,20,14,090,45,24,14,017,35,25,74,164,42*7D
1629321047876492 1629321047876 
$GPGSV,4,3,13,29,65,270,30,31,26,226,30,32,12,289,39,46,14,289,40*7A
1629321047876521 1629321047876 
$GPGSV,4,4,13,51,30,308,35*41
1629321047877600 1629321047877 
$GLGSV,2,1,07,67,00,213,,74,24,047,39,75,77,091,36,76,38,213,25*6E
1629321047877608 1629321047877 
$GLGSV,2,2,07,84,12,148,29,85,72,154,39,86,53,324,32*55
1629321047877798 1629321047877 
$GNGLL,3849.70726,S,06804.17250,W,211048.00,A,A*7F
1629321048859825 1629321048859 
$GNRMC,211049.00,A,3849.70723,S,06804.17273,W,0.076,,180821,,,A*60
1629321048859837 1629321048859 
$GNVTG,,T,,M,0.076,N,0.141,K,A*38
1629321048860590 1629321048860 
$GNGGA,211049.00,3849.70723,S,06804.17273,W,1,12,0.77,280.0,M,22.7,M,,*41
1629321048861600 1629321048861 
$GNGSA,A,3,25,12,29,02,24,20,32,31,05,18,,,1.29,0.77,1.04*15
1629321048861830 1629321048861 
$GNGSA,A,3,74,85,84,76,,,,,,,,,1.29,0.77,1.04*10
1629321048863245 1629321048863 
$GPGSV,4,1,13,02,36,127,39,05,07,059,22,06,05,146,,12,51,096,43*76
1629321048863294 1629321048863 
$GPGSV,4,2,13,18,11,346,29,20,14,090,44,24,14,017,34,25,74,164,39*7F
1629321048863365 1629321048863 
$GPGSV,4,3,13,29,65,270,32,31,26,226,36,32,12,289,35,46,14,289,37*72
1629321048863373 1629321048863 
$GPGSV,4,4,13,51,30,308,37*43
1629321048863686 1629321048863 
$GLGSV,2,1,07,67,00,213,,74,24,047,41,75,77,091,27,76,38,213,43*61
1629321048863765 1629321048863 
$GLGSV,2,2,07,84,12,148,19,85,72,154,31,86,53,324,35*59
1629321048864287 1629321048864 
$GNGLL,3849.70723,S,06804.17273,W,211049.00,A,A*7A
1629321049865214 1629321049865 
$GNRMC,211050.00,A,3849.70719,S,06804.17307,W,0.008,,180821,,,A*6A
1629321049865294 1629321049865 
$GNVTG,,T,,M,0.008,N,0.014,K,A*30
1629321049865571 1629321049865 
$GNGGA,211050.00,3849.70719,S,06804.17307,W,1,12,0.82,280.1,M,22.7,M,,*49
1629321049865624 1629321049865 
$GNGSA,A,3,25,12,29,02,24,20,32,31,05,18,,,1.43,0.82,1.17*11
1629321049865794 1629321049865 
$GNGSA,A,3,74,85,76,,,,,,,,,,1.43,0.82,1.17*18
1629321049868082 1629321049868 
$GPGSV,4,1,13,02,36,127,43,05,07,059,20,06,05,146,,12,51,096,42*78
1629321049868302 1629321049868 
$GPGSV,4,2,13,18,11,346,31,20,14,090,45,24,14,017,32,25,74,164,39*71
1629321049868373 1629321049868 
$GPGSV,4,3,13,29,65,270,33,31,26,226,35,32,12,289,37,46,14,289,37*72
1629321049868381 1629321049868 
$GPGSV,4,4,13,51,30,308,31*45
1629321049869247 1629321049869 
$GLGSV,2,1,07,67,00,213,,74,24,047,42,75,77,091,26,76,38,213,43*63
1629321049869255 1629321049869 
$GLGSV,2,2,07,84,12,148,,85,72,154,35,86,53,324,35*55
1629321049869317 1629321049869 
$GNGLL,3849.70719,S,06804.17307,W,211050.00,A,A*79
1629321050853763 1629321050853 
$GNRMC,211051.00,A,3849.70712,S,06804.17336,W,0.012,,180821,,,A*69
1629321050853774 1629321050853 
$GNVTG,,T,,M,0.012,N,0.023,K,A*3F
1629321050853781 1629321050853 
$GNGGA,211051.00,3849.70712,S,06804.17336,W,1,12,0.82,280.2,M,22.7,M,,*42
1629321050853787 1629321050853 
$GNGSA,A,3,25,12,29,02,24,20,32,31,05,18,,,1.43,0.82,1.17*11
1629321050853793 1629321050853 
$GNGSA,A,3,74,85,76,,,,,,,,,,1.43,0.82,1.17*18
1629321050855678 1629321050855 
$GPGSV,4,1,13,02,36,128,43,05,07,059,21,06,05,146,,12,51,096,44*70
1629321050855690 1629321050855 
$GPGSV,4,2,13,18,11,346,31,20,14,090,45,24,14,017,31,25,74,164,38*73
1629321050855697 1629321050855 
$GPGSV,4,3,13,29,65,270,33,31,26,226,36,32,12,289,38,46,14,289,38*71
1629321050855703 1629321050855 
$GPGSV,4,4,13,51,30,308,32*46
1629321050856375 1629321050856 
$GLGSV,2,1,07,67,00,213,,74,24,047,41,75,77,091,24,76,38,213,42*63
1629321050856479 1629321050856 
$GLGSV,2,2,07,84,12,148,,85,72,154,36,86,53,324,35*56
1629321050856588 1629321050856 
$GNGLL,3849.70712,S,06804.17336,W,211051.00,A,A*71
1629321051858790 1629321051858 
$GNRMC,211052.00,A,3849.70708,S,06804.17362,W,0.026,,180821,,,A*67
1629321051858802 1629321051858 
$GNVTG,,T,,M,0.026,N,0.048,K,A*35
1629321051858808 1629321051858 
$GNGGA,211052.00,3849.70708,S,06804.17362,W,1,12,0.82,280.3,M,22.7,M,,*4A
1629321051858814 1629321051858 
$GNGSA,A,3,25,12,29,02,24,20,32,31,05,18,,,1.43,0.82,1.17*11
1629321051858821 1629321051858 
$GNGSA,A,3,74,85,76,,,,,,,,,,1.43,0.82,1.17*18
1629321051860648 1629321051860 
$GPGSV,4,1,13,02,36,128,42,05,07,059,24,06,05,146,,12,51,096,45*75
1629321051861375 1629321051861 
$GPGSV,4,2,13,18,11,346,32,20,14,090,44,24,14,017,31,25,74,164,38*71
1629321051861553 1629321051861 
$GPGSV,4,3,13,29,65,270,34,31,26,226,36,32,12,289,36,46,14,289,36*76
1629321051861578 1629321051861 
$GPGSV,4,4,13,51,30,308,*47
1629321051863500 1629321051863 
$GLGSV,2,1,07,67,00,213,,74,24,047,41,75,77,091,22,76,38,213,42*65
1629321051863512 1629321051863 
$GLGSV,2,2,07,84,12,148,,85,72,154,36,86,53,324,34*57
1629321051863518 1629321051863 
$GNGLL,3849.70708,S,06804.17362,W,211052.00,A,A*78
1629321052858801 1629321052858 
$GNRMC,211053.00,A,3849.70712,S,06804.17397,W,0.049,,180821,,,A*6E
1629321052859364 1629321052859 
$GNVTG,,T,,M,0.049,N,0.091,K,A*38
1629321052859555 1629321052859 
$GNGGA,211053.00,3849.70712,S,06804.17397,W,1,12,0.82,280.1,M,22.7,M,,*48
1629321052859643 1629321052859 
$GNGSA,A,3,25,12,29,02,24,20,32,31,05,18,,,1.43,0.82,1.17*11
1629321052859772 1629321052859 
$GNGSA,A,3,74,85,76,,,,,,,,,,1.43,0.82,1.17*18
1629321052861697 1629321052861 
$GPGSV,4,1,13,02,36,128,43,05,07,059,23,06,05,146,26,12,51,096,46*74
1629321052863598 1629321052863 
$GPGSV,4,2,13,18,11,346,26,20,14,090,44,24,14,017,32,25,74,164,38*77
1629321052863609 1629321052863 
$GPGSV,4,3,13,29,65,270,31,31,26,226,36,32,12,289,38,46,14,289,37*7C
1629321052863615 1629321052863 
$GPGSV,4,4,13,51,30,308,33*47
1629321052863621 1629321052863 
$GLGSV,2,1,07,67,00,213,,74,24,047,42,75,77,091,21,76,38,213,41*66
1629321052863628 1629321052863 
$GLGSV,2,2,07,84,12,148,06,85,72,154,36,86,53,324,35*50
1629321052863640 1629321052863 
$GNGLL,3849.70712,S,06804.17397,W,211053.00,A,A*78
1629321053868810 1629321053868 
$GNRMC,211054.00,A,3849.70710,S,06804.17415,W,0.022,,180821,,,A*6B
1629321053868821 1629321053868 
$GNVTG,,T,,M,0.022,N,0.040,K,A*39
1629321053868828 1629321053868 
$GNGGA,211054.00,3849.70710,S,06804.17415,W,1,12,0.82,280.2,M,22.7,M,,*43
1629321053868834 1629321053868 
$GNGSA,A,3,25,12,29,02,24,20,32,31,05,18,,,1.43,0.82,1.17*11
1629321053868840 1629321053868 
$GNGSA,A,3,74,85,76,,,,,,,,,,1.43,0.82,1.17*18
1629321053870173 1629321053870 
$GPGSV,4,1,13,02,36,128,43,05,07,059,22,06,05,146,24,12,51,096,44*75
1629321053870305 1629321053870 
$GPGSV,4,2,13,18,11,346,32,20,14,090,44,24,14,017,29,25,74,164,38*78
1629321053870376 1629321053870 
$GPGSV,4,3,13,29,65,270,32,31,26,226,36,32,12,289,37,46,14,289,38*7F
1629321053870403 1629321053870 
$GPGSV,4,4,13,51,30,308,33*47
1629321053871395 1629321053871 
$GLGSV,2,1,07,67,00,213,,74,24,047,39,75,77,091,21,76,38,213,41*6A
1629321053871430 1629321053871 
$GLGSV,2,2,07,84,12,148,10,85,72,154,34,86,53,324,35*55
1629321053871513 1629321053871 
$GNGLL,3849.70710,S,06804.17415,W,211054.00,A,A*70
1629321054853058 1629321054853 
$GNRMC,211055.00,A,3849.70719,S,06804.17418,W,0.214,,180821,,,A*69
1629321054853070 1629321054853 
$GNVTG,,T,,M,0.214,N,0.396,K,A*36
1629321054853077 1629321054853 
$GNGGA,211055.00,3849.70719,S,06804.17418,W,1,12,0.88,280.5,M,22.7,M,,*4B
1629321054853083 1629321054853 
$GNGSA,A,3,25,12,29,02,24,20,31,05,18,,,,1.53,0.88,1.25*1A
1629321054853089 1629321054853 
$GNGSA,A,3,74,85,76,,,,,,,,,,1.53,0.88,1.25*12
1629321054853349 1629321054853 
$GPGSV,4,1,13,02,36,128,34,05,07,059,29,06,05,146,23,12,51,096,46*7B
1629321054853361 1629321054853 
$GPGSV,4,2,13,18,11,346,26,20,14,090,47,24,14,017,41,25,74,164,37*7F
1629321054853453 1629321054853 
$GPGSV,4,3,13,29,65,270,35,31,26,226,39,32,12,289,,46,14,289,35*7E
