1629322224867170 1629322224867 
$GNRMC,213025.00,A,3849.70339,S,06804.16605,W,0.036,,180821,,,A*67
1629322224867258 1629322224867 
$GNVTG,,T,,M,0.036,N,0.067,K,A*39
1629322224867800 1629322224867 
$GNGGA,213025.00,3849.70339,S,06804.16605,W,1,12,0.85,279.1,M,22.7,M,,*48
1629322224867927 1629322224867 
$GNGSA,A,3,25,12,29,02,20,32,31,05,18,51,,,1.59,0.85,1.34*1E
1629322224868048 1629322224868 
$GNGSA,A,3,74,85,76,86,,,,,,,,,1.59,0.85,1.34*1B
1629322224869035 1629322224869 
$GPGSV,4,1,15,02,29,133,45,05,12,065,34,11,24,134,,12,45,085,37*78
1629322224869144 1629322224869 
$GPGSV,4,2,15,18,20,345,34,20,18,098,37,24,06,017,26,25,75,129,31*74
1629322224869737 1629322224869 
$GPGSV,4,3,15,26,03,240,,29,70,247,21,31,33,231,28,32,06,295,24*72
1629322224869782 1629322224869 
$GPGSV,4,4,15,46,14,289,30,48,17,292,35,51,30,308,39*49
1629322224870809 1629322224870 
$GLGSV,2,1,08,74,16,041,17,75,70,057,39,76,48,211,40,77,00,217,*6B
1629322224870886 1629322224870 
$GLGSV,2,2,08,84,04,146,13,85,61,155,39,86,63,312,26,87,01,323,*66
1629322224870948 1629322224870 
$GNGLL,3849.70339,S,06804.16605,W,213025.00,A,A*79
1629322225482041 1629322225482 
$GNTXT,01,01,02,u-blox AG - www.u-blox.com*4E
1629322225482053 1629322225482 
$GNTXT,01,01,02,HW UBX-M8030 00080000*60
1629322225482059 1629322225482 
$GNTXT,01,01,02,EXT CORE 3.01 (107900)*33
1629322225482065 1629322225482 
$GNTXT,01,01,02,ROM BASE 2.01 (75331)*19
1629322225482072 1629322225482 
$GNTXT,01,01,02,FWVER=SPG 3.01*46
1629322225482078 1629322225482 
$GNTXT,01,01,02,PROTVER=18.00*11
1629322225482090 1629322225482 
$GNTXT,01,01,02,MOD=NEO-M8N-0*67
1629322225483384 1629322225483 
$GNTXT,01,01,02,FIS=0xEF4015 (100111)*58
1629322225483784 1629322225483 
$GNTXT,01,01,02,GPS;GLO;GAL;BDS*77
1629322225483791 1629322225483 
$GNTXT,01,01,02,SBAS;IMES;QZSS*49
1629322225484446 1629322225484 
$GNTXT,01,01,02,GNSS OTP=GPS;GLO*37
1629322225484637 1629322225484 
$GNTXT,01,01,02,LLC=FFFFFFFF-FFFFFFED-FFFFFFFF-FFFFFFFF-FFFFFF69*23
1629322225484644 1629322225484 
$GNTXT,01,01,02,ANTSUPERV=AC SD PDoS SR*3E
1629322225484754 1629322225484 
$GNTXT,01,01,02,ANTSTATUS=OK*25
1629322225484788 1629322225484 
$GNTXT,01,01,02,PF=86*76
1629322225864996 1629322225864 
$GNRMC,213026.00,A,3849.70344,S,06804.16616,W,0.004,,180821,,,A*6D
1629322225865045 1629322225865 
$GNVTG,,T,,M,0.004,N,0.007,K,A*3E
1629322225865965 1629322225865 
$GNGGA,213026.00,3849.70344,S,06804.16616,W,1,12,0.85,279.1,M,22.7,M,,*43
1629322225866135 1629322225866 
$GNGSA,A,3,25,12,29,02,20,32,31,05,18,51,,,1.59,0.85,1.34*1E
1629322225866194 1629322225866 
$GNGSA,A,3,74,85,76,86,,,,,,,,,1.59,0.85,1.34*1B
1629322225866901 1629322225866 
$GPGSV,4,1,15,02,29,133,47,05,12,065,34,11,24,134,,12,45,085,37*7A
1629322225867021 1629322225867 
$GPGSV,4,2,15,18,20,345,30,20,18,098,35,24,06,017,,25,75,129,31*76
1629322225867572 1629322225867 
$GPGSV,4,3,15,26,03,240,,29,70,247,17,31,33,231,29,32,06,295,25*77
1629322225867580 1629322225867 
$GPGSV,4,4,15,46,14,289,30,48,17,292,36,51,30,308,39*4A
1629322225868176 1629322225868 
$GLGSV,2,1,08,74,15,041,16,75,70,057,37,76,48,211,42,77,00,217,*65
1629322225868534 1629322225868 
$GLGSV,2,2,08,84,04,146,14,85,61,155,42,86,63,312,27,87,01,323,*6C
1629322225868580 1629322225868 
$GNGLL,3849.70344,S,06804.16616,W,213026.00,A,A*72
1629322226854518 1629322226854 
$GNRMC,213027.00,A,3849.70348,S,06804.16627,W,0.003,,180821,,,A*65
1629322226854581 1629322226854 
$GNVTG,,T,,M,0.003,N,0.005,K,A*3B
1629322226854699 1629322226854 
$GNGGA,213027.00,3849.70348,S,06804.16627,W,1,12,0.85,279.1,M,22.7,M,,*4C
1629322226854794 1629322226854 
$GNGSA,A,3,25,12,29,02,20,32,31,05,18,51,,,1.59,0.85,1.34*1E
1629322226854834 1629322226854 
$GNGSA,A,3,74,85,76,86,,,,,,,,,1.59,0.85,1.34*1B
1629322226856021 1629322226856 
$GPGSV,4,1,15,02,29,133,47,05,12,065,33,11,24,134,,12,45,085,37*7D
1629322226856861 1629322226856 
$GPGSV,4,2,15,18,20,345,30,20,18,098,35,24,06,017,,25,75,129,31*76
1629322226857030 1629322226857 
$GPGSV,4,3,15,26,03,240,,29,70,247,16,31,33,231,30,32,06,295,26*7D
1629322226857180 1629322226857 
$GPGSV,4,4,15,46,14,289,30,48,17,292,37,51,30,308,39*4B
1629322226858684 1629322226858 
$GLGSV,2,1,08,74,15,041,15,75,70,055,37,76,48,211,42,77,00,217,*64
1629322226858845 1629322226858 
$GLGSV,2,2,08,84,04,146,16,85,61,155,42,86,63,312,27,87,01,323,*6E
1629322226858892 1629322226858 
$GNGLL,3849.70348,S,06804.16627,W,213027.00,A,A*7D
1629322227865282 1629322227865 
$GNRMC,213028.00,A,3849.70354,S,06804.16642,W,0.010,,180821,,,A*66
1629322227865294 1629322227865 
$GNVTG,,T,,M,0.010,N,0.018,K,A*35
1629322227865300 1629322227865 
$GNGGA,213028.00,3849.70354,S,06804.16642,W,1,12,0.85,279.0,M,22.7,M,,*4C
1629322227865307 1629322227865 
$GNGSA,A,3,25,12,29,02,20,32,31,05,18,51,,,1.59,0.85,1.34*1E
1629322227865785 1629322227865 
$GNGSA,A,3,74,85,76,86,,,,,,,,,1.59,0.85,1.34*1B
1629322227866604 1629322227866 
$GPGSV,4,1,15,02,29,133,47,05,12,065,33,11,24,134,,12,45,085,37*7D
1629322227866678 1629322227866 
$GPGSV,4,2,15,18,20,345,30,20,18,098,35,24,06,017,,25,75,129,31*76
1629322227866748 1629322227866 
$GPGSV,4,3,15,26,03,240,,29,70,247,13,31,33,231,30,32,06,295,26*78
1629322227866808 1629322227866 
$GPGSV,4,4,15,46,14,289,30,48,17,292,37,51,30,308,39*4B
1629322227867611 1629322227867 
$GLGSV,2,1,08,74,15,041,15,75,70,055,37,76,48,211,42,77,00,217,*64
1629322227867796 1629322227867 
$GLGSV,2,2,08,84,04,146,17,85,61,155,42,86,63,312,27,87,01,323,*6F
1629322227867868 1629322227867 
$GNGLL,3849.70354,S,06804.16642,W,213028.00,A,A*7C
1629322228864336 1629322228864 
$GNRMC,213029.00,A,3849.70357,S,06804.16650,W,0.017,,180821,,,A*60
1629322228864351 1629322228864 
$GNVTG,,T,,M,0.017,N,0.032,K,A*3A
1629322228864452 1629322228864 
$GNGGA,213029.00,3849.70357,S,06804.16650,W,1,12,0.85,279.0,M,22.7,M,,*4D
1629322228864540 1629322228864 
$GNGSA,A,3,25,12,29,02,20,32,31,05,18,51,,,1.59,0.85,1.34*1E
1629322228864570 1629322228864 
$GNGSA,A,3,74,85,76,86,,,,,,,,,1.59,0.85,1.34*1B
1629322228864957 1629322228864 
$GPGSV,4,1,15,02,29,133,46,05,12,065,34,11,24,134,,12,45,085,37*7B
1629322228865144 1629322228865 
$GPGSV,4,2,15,18,20,345,31,20,18,098,35,24,06,017,,25,75,129,30*76
1629322228865191 1629322228865 
$GPGSV,4,3,15,26,03,240,,29,70,247,13,31,33,231,29,32,06,295,26*70
1629322228865853 1629322228865 
$GPGSV,4,4,15,46,14,289,30,48,17,292,36,51,30,308,39*4A
1629322228866181 1629322228866 
$GLGSV,2,1,08,74,15,041,13,75,70,055,38,76,48,211,42,77,00,217,*6D
1629322228866605 1629322228866 
$GLGSV,2,2,08,84,04,146,17,85,61,155,41,86,63,312,28,87,01,323,*63
1629322228866682 1629322228866 
$GNGLL,3849.70357,S,06804.16650,W,213029.00,A,A*7D
1629322229871875 1629322229871 
$GNRMC,213030.00,A,3849.70358,S,06804.16655,W,0.081,,180821,,,A*6D
1629322229871887 1629322229871 
$GNVTG,,T,,M,0.081,N,0.150,K,A*30
1629322229872752 1629322229872 
$GNGGA,213030.00,3849.70358,S,06804.16655,W,1,12,0.85,279.2,M,22.7,M,,*4D
1629322229872857 1629322229872 
$GNGSA,A,3,25,12,29,02,20,32,31,05,18,51,,,1.59,0.85,1.34*1E
1629322229872924 1629322229872 
$GNGSA,A,3,74,85,76,86,,,,,,,,,1.59,0.85,1.34*1B
1629322229874465 1629322229874 
$GPGSV,4,1,15,02,29,133,47,05,12,065,34,11,24,134,,12,45,085,37*7A
1629322229874477 1629322229874 
$GPGSV,4,2,15,18,20,345,24,20,18,098,31,24,06,017,,25,75,129,35*73
1629322229874552 1629322229874 
$GPGSV,4,3,15,26,03,240,,29,70,247,17,31,33,231,38,32,06,295,26*74
1629322229874593 1629322229874 
$GPGSV,4,4,15,46,14,289,30,48,17,292,37,51,30,308,37*45
1629322229874963 1629322229874 
$GLGSV,2,1,08,74,15,041,15,75,70,055,35,76,48,211,40,77,00,217,*64
1629322229875037 1629322229875 
$GLGSV,2,2,08,84,04,146,16,85,61,155,42,86,63,312,27,87,01,323,*6E
1629322229875130 1629322229875 
$GNGLL,3849.70358,S,06804.16655,W,213030.00,A,A*7F
1629322230867361 1629322230867 
$GNRMC,213031.00,A,3849.70366,S,06804.16665,W,0.102,,180821,,,A*68
1629322230867373 1629322230867 
$GNVTG,,T,,M,0.102,N,0.190,K,A*36
1629322230867379 1629322230867 
$GNGGA,213031.00,3849.70366,S,06804.16665,W,1,12,0.85,278.3,M,22.7,M,,*42
1629322230867386 1629322230867 
$GNGSA,A,3,25,12,29,02,20,32,31,05,18,51,,,1.59,0.85,1.34*1E
1629322230868305 1629322230868 
$GNGSA,A,3,74,85,76,86,,,,,,,,,1.59,0.85,1.34*1B
1629322230868662 1629322230868 
$GPGSV,4,1,15,02,29,133,46,05,12,065,33,11,24,134,,12,45,085,35*7E
1629322230868733 1629322230868 
$GPGSV,4,2,15,18,20,345,34,20,18,098,26,24,06,017,,25,75,129,40*76
1629322230868812 1629322230868 
$GPGSV,4,3,15,26,03,240,,29,70,247,34,31,33,231,40,32,06,295,25*79
1629322230868839 1629322230868 
$GPGSV,4,4,15,46,14,289,39,48,17,292,38,51,30,308,37*43
1629322230869888 1629322230869 
$GLGSV,2,1,08,74,15,041,28,75,70,055,40,76,48,211,33,77,00,217,*6C
1629322230870038 1629322230870 
$GLGSV,2,2,08,84,04,146,17,85,61,155,40,86,63,312,27,87,01,323,*6D
1629322230870849 1629322230870 
$GNGLL,3849.70366,S,06804.16665,W,213031.00,A,A*70
1629322231871075 1629322231871 
$GNRMC,213032.00,A,3849.70359,S,06804.16660,W,0.190,,180821,,,A*69
1629322231871109 1629322231871 
$GNVTG,,T,,M,0.190,N,0.351,K,A*32
1629322231872067 1629322231872 
$GNGGA,213032.00,3849.70359,S,06804.16660,W,1,12,0.85,277.8,M,22.7,M,,*4C
1629322231872079 1629322231872 
$GNGSA,A,3,25,12,29,02,20,32,31,05,18,51,,,1.59,0.85,1.34*1E
1629322231872085 1629322231872 
$GNGSA,A,3,74,85,76,86,,,,,,,,,1.59,0.85,1.34*1B
1629322231872880 1629322231872 
$GPGSV,4,1,15,02,29,133,44,05,12,065,36,11,24,134,,12,45,085,32*7E
1629322231873025 1629322231873 
$GPGSV,4,2,15,18,20,345,31,20,18,098,33,24,06,017,,25,75,129,40*77
1629322231873131 1629322231873 
$GPGSV,4,3,15,26,03,240,25,29,70,247,32,31,33,231,40,32,06,295,22*7F
1629322231873759 1629322231873 
$GPGSV,4,4,15,46,14,289,38,48,17,292,40,51,30,308,35*4F
1629322231874298 1629322231874 
$GLGSV,2,1,08,74,15,041,33,75,70,055,39,76,48,211,27,77,00,217,*6D
1629322231874338 1629322231874 
$GLGSV,2,2,08,84,04,146,17,85,61,155,43,86,63,312,28,87,01,323,*61
1629322231874383 1629322231874 
$GNGLL,3849.70359,S,06804.16660,W,213032.00,A,A*7A
1629322232862422 1629322232862 
$GNRMC,213033.00,A,3849.70337,S,06804.16666,W,0.051,,180821,,,A*6A
1629322232862434 1629322232862 
$GNVTG,,T,,M,0.051,N,0.094,K,A*34
1629322232863576 1629322232863 
$GNGGA,213033.00,3849.70337,S,06804.16666,W,1,12,0.92,277.9,M,22.7,M,,*44
1629322232863591 1629322232863 
$GNGSA,A,3,25,12,29,02,20,32,31,05,18,,,,1.65,0.92,1.38*1F
1629322232863681 1629322232863 
$GNGSA,A,3,74,85,76,86,,,,,,,,,1.65,0.92,1.38*1E
1629322232864390 1629322232864 
$GPGSV,4,1,15,02,29,133,44,05,12,065,28,11,24,134,,12,45,085,35*76
1629322232864466 1629322232864 
$GPGSV,4,2,15,18,20,345,34,20,18,098,25,24,06,017,,25,75,129,35*77
1629322232864638 1629322232864 
$GPGSV,4,3,15,26,03,240,,29,70,247,41,31,33,231,34,32,06,295,20*7D
1629322232864676 1629322232864 
$GPGSV,4,4,15,46,14,289,34,48,17,292,40,51,30,308,*45
1629322232865084 1629322232865 
$GLGSV,2,1,08,74,15,041,33,75,70,055,39,76,48,211,33,77,00,217,*68
1629322232865870 1629322232865 
$GLGSV,2,2,08,84,04,146,19,85,61,155,39,86,63,312,27,87,01,323,*6D
1629322232865878 1629322232865 
$GNGLL,3849.70337,S,06804.16666,W,213033.00,A,A*75
1629322233865256 1629322233865 
$GNRMC,213034.00,A,3849.70321,S,06804.16669,W,0.019,,180821,,,A*69
1629322233865268 1629322233865 
$GNVTG,,T,,M,0.019,N,0.035,K,A*33
1629322233865901 1629322233865 
$GNGGA,213034.00,3849.70321,S,06804.16669,W,1,12,0.92,277.9,M,22.7,M,,*4B
1629322233865920 1629322233865 
$GNGSA,A,3,25,12,29,02,20,31,05,18,,,,,1.65,0.92,1.38*1E
1629322233866077 1629322233866 
$GNGSA,A,3,74,85,76,86,,,,,,,,,1.65,0.92,1.38*1E
1629322233866662 1629322233866 
$GPGSV,4,1,15,02,29,133,44,05,12,065,28,11,24,134,,12,45,085,36*75
1629322233866674 1629322233866 
$GPGSV,4,2,15,18,20,345,33,20,18,098,24,24,06,017,,25,75,129,34*70
1629322233866777 1629322233866 
$GPGSV,4,3,15,26,03,240,,29,70,247,41,31,33,231,35,32,06,295,27*7B
1629322233866825 1629322233866 
$GPGSV,4,4,15,46,14,289,30,48,17,292,39,51,30,308,*4F
1629322233867701 1629322233867 
$GLGSV,2,1,08,74,15,041,32,75,70,055,39,76,48,211,38,77,00,217,*62
1629322233867771 1629322233867 
$GLGSV,2,2,08,84,04,146,21,85,61,155,39,86,63,312,28,87,01,323,*69
1629322233867850 1629322233867 
$GNGLL,3849.70321,S,06804.16669,W,213034.00,A,A*7A
1629322234862029 1629322234862 
$GNRMC,213035.00,A,3849.70307,S,06804.16667,W,0.046,,180821,,,A*68
1629322234862040 1629322234862 
$GNVTG,,T,,M,0.046,N,0.085,K,A*32
1629322234862047 1629322234862 
$GNGGA,213035.00,3849.70307,S,06804.16667,W,1,12,0.92,277.9,M,22.7,M,,*40
1629322234862053 1629322234862 
$GNGSA,A,3,25,12,29,02,20,31,05,18,,,,,1.65,0.92,1.38*1E
1629322234862059 1629322234862 
$GNGSA,A,3,74,85,76,86,,,,,,,,,1.65,0.92,1.38*1E
1629322234863418 1629322234863 
$GPGSV,4,1,15,02,29,133,44,05,12,065,31,11,24,134,,12,45,085,39*72
1629322234863430 1629322234863 
$GPGSV,4,2,15,18,20,345,28,20,18,098,23,24,06,017,,25,75,129,34*7D
1629322234863437 1629322234863 
$GPGSV,4,3,15,26,03,240,,29,70,247,42,31,33,231,37,32,06,295,26*7B
1629322234863443 1629322234863 
$GPGSV,4,4,15,46,14,289,35,48,17,292,40,51,30,308,*44
1629322234864593 1629322234864 
$GLGSV,2,1,08,74,15,041,30,75,70,055,37,76,48,211,35,77,00,217,*63
1629322234864605 1629322234864 
$GLGSV,2,2,08,84,04,146,21,85,61,155,40,86,63,312,28,87,01,323,*67
1629322234864665 1629322234864 
$GNGLL,3849.70307,S,06804.16667,W,213035.00,A,A*71
1629322235870390 1629322235870 
$GNRMC,213036.00,A,3849.70291,S,06804.16675,W,0.077,,180821,,,A*64
1629322235870401 1629322235870 
$GNVTG,,T,,M,0.077,N,0.142,K,A*3A
1629322235870611 1629322235870 
$GNGGA,213036.00,3849.70291,S,06804.16675,W,1,12,0.92,278.0,M,22.7,M,,*48
1629322235870809 1629322235870 
$GNGSA,A,3,25,12,29,02,20,32,31,05,18,,,,1.65,0.92,1.38*1F
1629322235870815 1629322235870 
$GNGSA,A,3,74,85,76,86,,,,,,,,,1.65,0.92,1.38*1E
1629322235872316 1629322235872 
$GPGSV,4,1,15,02,29,133,43,05,12,065,34,11,24,134,,12,45,085,37*7E
1629322235872329 1629322235872 
$GPGSV,4,2,15,18,20,345,33,20,18,098,23,24,06,017,,25,75,129,31*72
1629322235872335 1629322235872 
$GPGSV,4,3,15,26,03,240,23,29,70,247,42,31,33,231,37,32,06,295,26*7A
1629322235872341 1629322235872 
$GPGSV,4,4,15,46,14,289,35,48,17,292,38,51,30,308,*4B
1629322235873231 1629322235873 
$GLGSV,2,1,08,74,15,041,30,75,70,055,38,76,48,211,36,77,00,217,*6F
1629322235873679 1629322235873 
$GLGSV,2,2,08,84,04,146,22,85,61,155,39,86,63,312,28,87,01,323,*6A
1629322235873803 1629322235873 
$GNGLL,3849.70291,S,06804.16675,W,213036.00,A,A*7F
1629322236864593 1629322236864 
$GNRMC,213037.00,A,3849.70280,S,06804.16689,W,0.023,,180821,,,A*67
1629322236864605 1629322236864 
$GNVTG,,T,,M,0.023,N,0.043,K,A*3B
1629322236864691 1629322236864 
$GNGGA,213037.00,3849.70280,S,06804.16689,W,1,12,0.92,277.9,M,22.7,M,,*4C
1629322236864796 1629322236864 
$GNGSA,A,3,25,12,29,02,20,32,31,05,18,,,,1.65,0.92,1.38*1F
1629322236864802 1629322236864 
$GNGSA,A,3,74,85,76,86,,,,,,,,,1.65,0.92,1.38*1E
1629322236866580 1629322236866 
$GPGSV,4,1,15,02,29,133,43,05,12,065,34,11,24,134,,12,45,085,38*71
1629322236866733 1629322236866 
$GPGSV,4,2,15,18,20,345,30,20,18,098,23,24,06,017,,25,75,129,35*75
1629322236866858 1629322236866 
$GPGSV,4,3,15,26,03,240,23,29,70,247,42,31,33,231,37,32,06,295,25*79
1629322236866876 1629322236866 
$GPGSV,4,4,15,46,14,289,33,48,17,292,38,51,30,308,*4D
1629322236867907 1629322236867 
$GLGSV,2,1,08,74,15,041,29,75,70,055,38,76,48,211,37,77,00,217,*66
1629322236868038 1629322236868 
$GLGSV,2,2,08,84,04,146,21,85,60,155,41,86,63,312,29,87,01,323,*66
1629322236868146 1629322236868 
$GNGLL,3849.70280,S,06804.16689,W,213037.00,A,A*7D
1629322237863460 1629322237863 
$GNRMC,213038.00,A,3849.70272,S,06804.16702,W,0.040,,180821,,,A*62
1629322237863472 1629322237863 
$GNVTG,,T,,M,0.040,N,0.074,K,A*3A
1629322237863478 1629322237863 
$GNGGA,213038.00,3849.70272,S,06804.16702,W,1,12,0.92,277.7,M,22.7,M,,*42
1629322237863667 1629322237863 
$GNGSA,A,3,25,12,29,02,20,32,31,05,18,,,,1.65,0.92,1.38*1F
1629322237863730 1629322237863 
$GNGSA,A,3,74,85,76,86,,,,,,,,,1.65,0.92,1.38*1E
1629322237864747 1629322237864 
$GPGSV,4,1,15,02,29,133,44,05,12,065,33,11,24,134,,12,45,085,39*70
1629322237864760 1629322237864 
$GPGSV,4,2,15,18,20,345,30,20,18,098,23,24,06,017,,25,75,129,34*74
1629322237864768 1629322237864 
$GPGSV,4,3,15,26,03,240,,29,70,247,42,31,33,231,37,32,06,295,25*78
1629322237864819 1629322237864 
$GPGSV,4,4,15,46,14,289,29,48,17,292,38,51,30,308,*46
1629322237864825 1629322237864 
$GLGSV,2,1,08,74,15,041,30,75,70,055,38,76,48,211,37,77,00,217,*6E
1629322237864836 1629322237864 
$GLGSV,2,2,08,84,04,146,21,85,60,155,41,86,63,311,28,87,01,323,*64
1629322237864843 1629322237864 
$GNGLL,3849.70272,S,06804.16702,W,213038.00,A,A*7D
1629322238862512 1629322238862 
$GNRMC,213039.00,A,3849.70260,S,06804.16703,W,0.085,,180821,,,A*68
1629322238862523 1629322238862 
$GNVTG,,T,,M,0.085,N,0.157,K,A*33
1629322238863443 1629322238863 
$GNGGA,213039.00,3849.70260,S,06804.16703,W,1,12,0.85,277.8,M,22.7,M,,*48
1629322238863456 1629322238863 
$GNGSA,A,3,25,12,29,02,20,32,31,05,18,51,,,1.59,0.85,1.34*1E
1629322238863660 1629322238863 
$GNGSA,A,3,74,85,76,86,,,,,,,,,1.59,0.85,1.34*1B
1629322238864230 1629322238864 
$GPGSV,4,1,15,02,29,133,42,05,12,065,33,11,24,134,,12,45,085,40*78
1629322238864242 1629322238864 
$GPGSV,4,2,15,18,20,345,33,20,18,098,25,24,06,017,,25,75,129,34*71
1629322238864334 1629322238864 
$GPGSV,4,3,15,26,03,240,24,29,70,247,41,31,33,231,39,32,06,295,25*73
1629322238864381 1629322238864 
$GPGSV,4,4,15,46,14,289,29,48,17,292,40,51,30,308,30*4A
1629322238864706 1629322238864 
$GLGSV,2,1,08,74,15,041,31,75,70,055,38,76,48,211,37,77,00,217,*6F
1629322238864717 1629322238864 
$GLGSV,2,2,08,84,04,146,21,85,60,155,41,86,63,311,28,87,01,322,*65
1629322238864793 1629322238864 
$GNGLL,3849.70260,S,06804.16703,W,213039.00,A,A*7E
1629322239856432 1629322239856 
$GNRMC,213040.00,A,3849.70246,S,06804.16707,W,0.162,,180821,,,A*6E
1629322239856444 1629322239856 
$GNVTG,,T,,M,0.162,N,0.300,K,A*3B
1629322239856864 1629322239856 
$GNGGA,213040.00,3849.70246,S,06804.16707,W,1,12,0.85,277.9,M,22.7,M,,*47
1629322239856991 1629322239856 
$GNGSA,A,3,25,12,29,02,20,32,31,05,18,51,,,1.59,0.85,1.34*1E
1629322239856997 1629322239856 
$GNGSA,A,3,74,85,76,86,,,,,,,,,1.59,0.85,1.34*1B
1629322239858138 1629322239858 
$GPGSV,4,1,15,02,29,133,44,05,12,065,35,11,24,134,,12,45,085,39*76
1629322239858769 1629322239858 
$GPGSV,4,2,15,18,20,345,30,20,18,098,32,24,06,017,,25,75,129,34*74
1629322239858887 1629322239858 
$GPGSV,4,3,15,26,03,240,25,29,70,247,41,31,33,231,40,32,06,295,24*7D
1629322239858966 1629322239858 
$GPGSV,4,4,15,46,14,289,28,48,17,292,39,51,30,308,28*4C
1629322239861372 1629322239861 
$GLGSV,2,1,08,74,15,041,32,75,70,055,38,76,48,211,38,77,00,217,*63
1629322239861384 1629322239861 
$GLGSV,2,2,08,84,04,146,21,85,60,155,42,86,63,311,29,87,01,322,*67
1629322239861390 1629322239861 
$GNGLL,3849.70246,S,06804.16707,W,213040.00,A,A*70
1629322240864237 1629322240864 
$GNRMC,213041.00,A,3849.70230,S,06804.16704,W,0.012,,180821,,,A*6B
1629322240864250 1629322240864 
$GNVTG,,T,,M,0.012,N,0.022,K,A*3E
1629322240864255 1629322240864 
$GNGGA,213041.00,3849.70230,S,06804.16704,W,1,12,0.92,278.2,M,22.7,M,,*46
1629322240864262 1629322240864 
$GNGSA,A,3,25,12,29,02,20,32,31,05,18,,,,1.65,0.92,1.38*1F
1629322240864350 1629322240864 
$GNGSA,A,3,74,85,76,86,,,,,,,,,1.65,0.92,1.38*1E
1629322240865257 1629322240865 
$GPGSV,4,1,15,02,29,133,43,05,12,065,35,11,24,134,,12,45,085,40*7F
1629322240865269 1629322240865 
$GPGSV,4,2,15,18,20,345,33,20,18,098,32,24,06,017,25,25,75,129,34*70
1629322240865275 1629322240865 
$GPGSV,4,3,15,26,03,240,25,29,70,247,42,31,33,231,40,32,06,295,23*79
1629322240865281 1629322240865 
$GPGSV,4,4,15,46,14,289,27,48,17,292,40,51,30,308,*47
1629322240865952 1629322240865 
$GLGSV,2,1,08,74,15,041,34,75,70,055,38,76,48,211,35,77,00,217,*68
1629322240866044 1629322240866 
$GLGSV,2,2,08,84,04,146,22,85,60,155,43,86,63,311,30,87,01,322,*6D
1629322240866114 1629322240866 
$GNGLL,3849.70230,S,06804.16704,W,213041.00,A,A*73
1629322241877490 1629322241877 
$GNRMC,213042.00,A,3849.70215,S,06804.16701,W,0.032,,180821,,,A*68
1629322241877502 1629322241877 
$GNVTG,,T,,M,0.032,N,0.059,K,A*30
1629322241878095 1629322241878 
$GNGGA,213042.00,3849.70215,S,06804.16701,W,1,12,0.92,278.4,M,22.7,M,,*41
1629322241878182 1629322241878 
$GNGSA,A,3,25,12,29,02,20,31,05,18,,,,,1.66,0.92,1.38*1D
1629322241878668 1629322241878 
$GNGSA,A,3,74,85,76,86,,,,,,,,,1.66,0.92,1.38*1D
1629322241879943 1629322241879 
$GPGSV,4,1,15,02,29,133,44,05,12,065,36,11,24,134,,12,45,085,39*75
1629322241880056 1629322241880 
$GPGSV,4,2,15,18,20,345,31,20,18,098,32,24,06,017,24,25,75,129,31*76
1629322241882115 1629322241882 
$GPGSV,4,3,15,26,03,240,26,29,70,247,43,31,33,231,40,32,06,295,*7A
1629322241882127 1629322241882 
$GPGSV,4,4,15,46,14,289,27,48,17,292,40,51,30,308,28*4D
1629322241882875 1629322241882 
$GLGSV,2,1,08,74,15,041,34,75,70,055,38,76,48,211,35,77,00,217,*68
1629322241883079 1629322241883 
$GLGSV,2,2,08,84,04,146,22,85,60,155,41,86,63,311,30,87,01,322,*6F
1629322241883143 1629322241883 
$GNGLL,3849.70215,S,06804.16701,W,213042.00,A,A*72
1629322242861283 1629322242861 
$GNRMC,213043.00,A,3849.70241,S,06804.16701,W,0.294,,180821,,,A*66
1629322242861349 1629322242861 
$GNVTG,,T,,M,0.294,N,0.545,K,A*36
1629322242861551 1629322242861 
$GNGGA,213043.00,3849.70241,S,06804.16701,W,1,12,0.85,278.5,M,22.7,M,,*46
1629322242861606 1629322242861 
$GNGSA,A,3,25,12,29,02,20,32,31,05,18,51,,,1.59,0.85,1.34*1E
1629322242861655 1629322242861 
$GNGSA,A,3,74,85,76,86,,,,,,,,,1.59,0.85,1.34*1B
1629322242862184 1629322242862 
$GPGSV,4,1,15,02,29,133,46,05,12,065,33,11,24,134,,12,45,085,40*7C
1629322242862829 1629322242862 
$GPGSV,4,2,15,18,20,345,39,20,18,098,30,24,06,017,,25,75,129,39*72
1629322242862841 1629322242862 
$GPGSV,4,3,15,26,03,240,,29,70,247,41,31,33,231,39,32,06,295,30*71
1629322242862954 1629322242862 
$GPGSV,4,4,15,46,14,289,,48,17,292,34,51,30,308,43*46
1629322242864264 1629322242864 
$GLGSV,2,1,08,74,15,041,29,75,70,055,28,76,48,211,40,77,00,217,*67
1629322242864278 1629322242864 
$GLGSV,2,2,08,84,04,146,21,85,60,155,34,86,63,311,35,87,01,322,*6B
1629322242864376 1629322242864 
$GNGLL,3849.70241,S,06804.16701,W,213043.00,A,A*72
1629322243847832 1629322243847 
$GNRMC,213044.00,A,3849.70235,S,06804.16689,W,0.305,,180821,,,A*6A
1629322243847970 1629322243847 
$GNVTG,,T,,M,0.305,N,0.565,K,A*3D
1629322243848331 1629322243848 
$GNGGA,213044.00,3849.70235,S,06804.16689,W,1,12,0.85,279.8,M,22.7,M,,*4F
1629322243848423 1629322243848 
$GNGSA,A,3,25,12,29,02,20,32,31,05,18,51,,,1.59,0.85,1.34*1E
1629322243848467 1629322243848 
$GNGSA,A,3,74,85,76,86,,,,,,,,,1.59,0.85,1.34*1B
1629322243848884 1629322243848 
$GPGSV,4,1,15,02,29,133,46,05,12,065,35,11,24,134,,12,45,085,43*79
1629322243848897 1629322243848 
$GPGSV,4,2,15,18,20,345,31,20,18,098,36,24,06,017,,25,75,129,43*71
1629322243849049 1629322243849 
$GPGSV,4,3,15,26,03,240,,29,70,247,37,31,33,231,40,32,06,295,29*76
1629322243849147 1629322243849 
$GPGSV,4,4,15,46,14,289,,48,17,292,37,51,30,308,42*44
1629322243850662 1629322243850 
$GLGSV,2,1,08,74,15,041,30,75,70,055,40,76,48,211,45,77,00,217,*64
1629322243850808 1629322243850 
$GLGSV,2,2,08,84,04,146,19,85,60,155,36,86,63,311,24,87,01,322,*62
1629322243850869 1629322243850 
$GNGLL,3849.70235,S,06804.16689,W,213044.00,A,A*77
1629322244853502 1629322244853 
$GNRMC,213045.00,A,3849.70234,S,06804.16685,W,0.506,291.25,180821,,,A*70
1629322244853514 1629322244853 
$GNVTG,291.25,T,,M,0.506,N,0.936,K,A*21
1629322244854422 1629322244854 
$GNGGA,213045.00,3849.70234,S,06804.16685,W,1,12,0.91,281.4,M,22.7,M,,*4D
1629322244854434 1629322244854 
$GNGSA,A,3,25,12,29,02,20,31,05,18,51,,,,1.63,0.91,1.35*12
1629322244854441 1629322244854 
$GNGSA,A,3,74,85,76,86,,,,,,,,,1.63,0.91,1.35*16
1629322244854903 1629322244854 
$GPGSV,4,1,15,02,29,133,40,05,12,066,27,11,24,134,,12,45,085,38*73
1629322244854915 1629322244854 
$GPGSV,4,2,15,18,20,345,38,20,18,098,33,24,06,017,27,25,75,129,40*7B
1629322244855056 1629322244855 
$GPGSV,4,3,15,26,03,240,,29,70,247,42,31,33,231,45,32,06,295,21*79
1629322244855118 1629322244855 
$GPGSV,4,4,15,46,14,289,,48,17,292,42,51,30,308,45*41
1629322244857330 1629322244857 
$GLGSV,2,1,08,74,15,041,29,75,70,055,41,76,48,211,42,77,00,217,*6A
1629322244857343 1629322244857 
$GLGSV,2,2,08,84,04,146,18,85,60,155,42,86,63,311,31,87,01,322,*64
1629322244857349 1629322244857 
$GNGLL,3849.70234,S,06804.16685,W,213045.00,A,A*7B
1629322245855901 1629322245855 
$GNRMC,213046.00,A,3849.70246,S,06804.16632,W,2.193,82.53,180821,,,A*41
1629322245855958 1629322245855 
$GNVTG,82.53,T,,M,2.193,N,4.062,K,A*16
1629322245857471 1629322245857 
$GNGGA,213046.00,3849.70246,S,06804.16632,W,1,12,0.85,281.5,M,22.7,M,,*43
1629322245857484 1629322245857 
$GNGSA,A,3,25,12,29,02,20,31,05,18,51,,,,1.59,0.85,1.34*1F
1629322245857490 1629322245857 
$GNGSA,A,3,74,85,76,86,,,,,,,,,1.59,0.85,1.34*1B
1629322245858765 1629322245858 
$GPGSV,4,1,15,02,29,133,40,05,12,066,38,11,24,134,,12,45,085,38*7D
1629322245858776 1629322245858 
$GPGSV,4,2,15,18,20,345,35,20,18,098,35,24,06,017,25,25,75,129,40*72
1629322245858881 1629322245858 
$GPGSV,4,3,15,26,03,240,25,29,70,247,39,31,33,231,49,32,06,295,*7D
1629322245858899 1629322245858 
$GPGSV,4,4,15,46,14,289,,48,17,292,32,51,30,308,43*40
1629322245862084 1629322245862 
$GLGSV,2,1,08,74,15,041,28,75,70,055,36,76,48,211,44,77,00,217,*6D
1629322245862096 1629322245862 
$GLGSV,2,2,08,84,04,146,18,85,60,155,36,86,63,311,27,87,01,322,19*68
1629322245862103 1629322245862 
$GNGLL,3849.70246,S,06804.16632,W,213046.00,A,A*71
1629322246859846 1629322246859 
$GNRMC,213047.00,A,3849.70253,S,06804.16584,W,1.226,83.20,180821,,,A*41
1629322246859893 1629322246859 
$GNVTG,83.20,T,,M,1.226,N,2.271,K,A*1B
1629322246861874 1629322246861 
$GNGGA,213047.00,3849.70253,S,06804.16584,W,1,12,0.85,282.2,M,22.7,M,,*4C
1629322246861887 1629322246861 
$GNGSA,A,3,25,12,29,02,24,20,31,05,18,51,,,1.59,0.85,1.34*19
1629322246861895 1629322246861 
$GNGSA,A,3,74,85,76,86,,,,,,,,,1.59,0.85,1.34*1B
1629322246861902 1629322246861 
$GPGSV,4,1,15,02,29,133,44,05,12,066,37,11,24,134,,12,45,085,27*78
1629322246861954 1629322246861 
$GPGSV,4,2,15,18,20,345,34,20,18,098,33,24,06,017,26,25,75,129,30*71
1629322246862100 1629322246862 
$GPGSV,4,3,15,26,03,240,25,29,70,247,41,31,33,231,52,32,06,295,*78
1629322246862775 1629322246862 
$GPGSV,4,4,15,46,14,289,,48,17,292,38,51,30,308,35*4B
1629322246863653 1629322246863 
$GLGSV,2,1,08,74,15,041,27,75,70,055,29,76,48,211,45,77,00,217,*6D
1629322246863822 1629322246863 
$GLGSV,2,2,08,84,04,146,16,85,60,155,44,86,63,311,25,87,01,322,19*61
1629322246863902 1629322246863 
$GNGLL,3849.70253,S,06804.16584,W,213047.00,A,A*7A
1629322247859181 1629322247859 
$GNRMC,213048.00,A,3849.70255,S,06804.16533,W,1.072,77.51,180821,,,A*4A
1629322247859193 1629322247859 
$GNVTG,77.51,T,,M,1.072,N,1.986,K,A*15
1629322247859200 1629322247859 
$GNGGA,213048.00,3849.70255,S,06804.16533,W,1,12,0.92,282.0,M,22.7,M,,*4D
1629322247859206 1629322247859 
$GNGSA,A,3,25,12,29,02,24,20,31,05,18,,,,1.66,0.92,1.38*1B
1629322247859212 1629322247859 
$GNGSA,A,3,74,85,76,86,,,,,,,,,1.66,0.92,1.38*1D
1629322247861491 1629322247861 
$GPGSV,4,1,15,02,29,133,40,05,12,066,30,11,24,134,,12,45,085,33*7E
1629322247861509 1629322247861 
$GPGSV,4,2,15,18,20,345,37,20,18,098,33,24,06,017,26,25,75,129,35*77
1629322247861563 1629322247861 
$GPGSV,4,3,15,26,03,240,,29,70,247,42,31,33,231,51,32,06,295,*7F
1629322247861605 1629322247861 
$GPGSV,4,4,15,46,14,289,,48,17,292,32,51,30,308,28*4D
1629322247861968 1629322247861 
$GLGSV,2,1,08,74,15,041,27,75,70,055,29,76,48,211,41,77,00,217,*69
1629322247862085 1629322247862 
$GLGSV,2,2,08,84,04,146,15,85,60,155,40,86,63,311,25,87,01,322,17*68
1629322247862106 1629322247862 
$GNGLL,3849.70255,S,06804.16533,W,213048.00,A,A*7F
1629322248845044 1629322248845 
$GNRMC,213049.00,A,3849.70238,S,06804.16492,W,1.197,50.98,180821,,,A*40
1629322248845056 1629322248845 
$GNVTG,50.98,T,,M,1.197,N,2.218,K,A*10
1629322248845063 1629322248845 
$GNGGA,213049.00,3849.70238,S,06804.16492,W,1,12,0.85,281.8,M,22.7,M,,*40
1629322248845069 1629322248845 
$GNGSA,A,3,25,12,29,02,20,31,05,18,51,,,,1.59,0.85,1.34*1F
1629322248845075 1629322248845 
$GNGSA,A,3,74,85,76,86,,,,,,,,,1.59,0.85,1.34*1B
1629322248846201 1629322248846 
$GPGSV,4,1,15,02,29,133,44,05,12,066,24,11,24,134,,12,45,085,29*74
1629322248846214 1629322248846 
$GPGSV,4,2,15,18,20,345,38,20,18,098,30,24,06,017,,25,75,129,40*7D
1629322248846293 1629322248846 
$GPGSV,4,3,15,26,03,240,,29,70,247,38,31,33,231,48,32,06,295,*7A
1629322248846339 1629322248846 
$GPGSV,4,4,15,46,14,289,,48,17,292,32,51,30,308,29*4C
1629322248846613 1629322248846 
$GLGSV,2,1,08,74,15,041,26,75,70,055,36,76,48,211,39,77,00,217,*69
1629322248846694 1629322248846 
$GLGSV,2,2,08,84,04,146,13,85,60,155,45,86,63,311,31,87,01,322,17*6E
1629322248846737 1629322248846 
$GNGLL,3849.70238,S,06804.16492,W,213049.00,A,A*7F
1629322249854521 1629322249854 
$GNRMC,213050.00,A,3849.70238,S,06804.16480,W,0.126,,180821,,,A*6A
1629322249854532 1629322249854 
$GNVTG,,T,,M,0.126,N,0.232,K,A*3B
1629322249854631 1629322249854 
$GNGGA,213050.00,3849.70238,S,06804.16480,W,1,12,0.79,281.9,M,22.7,M,,*49
1629322249854723 1629322249854 
$GNGSA,A,3,25,12,29,02,20,32,31,05,18,51,,,1.37,0.79,1.12*11
1629322249854752 1629322249854 
$GNGSA,A,3,74,85,76,86,,,,,,,,,1.37,0.79,1.12*14
1629322249855910 1629322249855 
$GPGSV,4,1,15,02,29,133,40,05,12,066,34,11,24,134,,12,45,085,34*7D
1629322249856049 1629322249856 
$GPGSV,4,2,15,18,20,345,42,20,18,098,30,24,06,017,28,25,75,129,38*75
1629322249856117 1629322249856 
$GPGSV,4,3,15,26,03,240,31,29,70,247,31,31,33,231,49,32,06,295,33*70
1629322249856901 1629322249856 
$GPGSV,4,4,15,46,14,289,,48,17,292,31,51,30,308,31*46
1629322249858188 1629322249858 
$GLGSV,2,1,08,74,15,041,28,75,70,055,34,76,48,211,39,77,00,217,*65
1629322249858286 1629322249858 
$GLGSV,2,2,08,84,04,146,11,85,60,155,38,86,63,311,24,87,01,322,19*6C
1629322249858331 1629322249858 
$GNGLL,3849.70238,S,06804.16480,W,213050.00,A,A*74
1629322250853833 1629322250853 
$GNRMC,213051.00,A,3849.70253,S,06804.16479,W,0.030,,180821,,,A*66
1629322250853897 1629322250853 
$GNVTG,,T,,M,0.030,N,0.055,K,A*3E
1629322250854169 1629322250854 
$GNGGA,213051.00,3849.70253,S,06804.16479,W,1,12,0.92,282.0,M,22.7,M,,*4C
1629322250854229 1629322250854 
$GNGSA,A,3,25,12,29,02,24,20,31,05,18,51,,,1.66,0.92,1.38*1F
1629322250854288 1629322250854 
$GNGSA,A,3,74,85,76,86,,,,,,,,,1.66,0.92,1.38*1D
1629322250855194 1629322250855 
$GPGSV,4,1,15,02,29,133,39,05,12,066,38,11,24,135,,12,45,085,34*7E
1629322250855206 1629322250855 
$GPGSV,4,2,15,18,20,345,44,20,18,098,30,24,06,017,30,25,75,129,36*74
1629322250855213 1629322250855 
$GPGSV,4,3,15,26,03,240,31,29,70,247,38,31,33,231,51,32,06,295,*70
1629322250855219 1629322250855 
$GPGSV,4,4,15,46,14,289,,48,17,292,,51,30,308,30*45
1629322250855850 1629322250855 
$GLGSV,2,1,08,74,15,041,28,75,70,055,37,76,48,211,41,77,00,217,*69
1629322250855932 1629322250855 
$GLGSV,2,2,08,84,04,146,11,85,60,155,40,86,63,311,23,87,01,322,19*64
1629322250855957 1629322250855 
$GNGLL,3849.70253,S,06804.16479,W,213051.00,A,A*7E
1629322251859436 1629322251859 
$GNRMC,213052.00,A,3849.70257,S,06804.16482,W,0.014,,180821,,,A*63
1629322251859447 1629322251859 
$GNVTG,,T,,M,0.014,N,0.025,K,A*3F
1629322251860458 1629322251860 
$GNGGA,213052.00,3849.70257,S,06804.16482,W,1,12,0.82,281.9,M,22.7,M,,*44
1629322251860847 1629322251860 
$GNGSA,A,3,25,12,29,02,24,20,32,31,05,18,51,,1.39,0.82,1.12*1D
1629322251860855 1629322251860 
$GNGSA,A,3,74,85,76,86,,,,,,,,,1.39,0.82,1.12*1E
1629322251861634 1629322251861 
$GPGSV,4,1,15,02,29,133,38,05,12,066,39,11,24,135,,12,44,084,33*79
1629322251861670 1629322251861 
$GPGSV,4,2,15,18,20,345,44,20,18,098,33,24,06,017,32,25,75,129,37*74
1629322251861778 1629322251861 
$GPGSV,4,3,15,26,03,240,31,29,70,247,37,31,33,231,51,32,06,295,32*7E
1629322251861790 1629322251861 
$GPGSV,4,4,15,46,14,289,,48,17,292,,51,30,308,30*45
1629322251862775 1629322251862 
$GLGSV,2,1,08,74,15,041,27,75,70,055,36,76,48,211,40,77,00,217,*66
1629322251862929 1629322251862 
$GLGSV,2,2,08,84,04,146,13,85,60,155,41,86,63,311,20,87,01,322,20*6E
1629322251863083 1629322251863 
$GNGLL,3849.70257,S,06804.16482,W,213052.00,A,A*7D
1629322252844826 1629322252844 
$GNRMC,213053.00,A,3849.70257,S,06804.16482,W,0.013,,180821,,,A*65
1629322252844840 1629322252844 
$GNVTG,,T,,M,0.013,N,0.024,K,A*39
1629322252845138 1629322252845 
$GNGGA,213053.00,3849.70257,S,06804.16482,W,1,12,0.82,281.9,M,22.7,M,,*45
1629322252845194 1629322252845 
$GNGSA,A,3,25,12,29,02,24,20,32,31,05,18,,,1.39,0.82,1.12*19
1629322252845266 1629322252845 
$GNGSA,A,3,74,85,76,86,,,,,,,,,1.39,0.82,1.12*1E
1629322252845626 1629322252845 
$GPGSV,4,1,15,02,29,133,37,05,12,066,39,11,24,135,,12,44,084,32*77
1629322252845701 1629322252845 
$GPGSV,4,2,15,18,20,345,44,20,18,098,34,24,06,017,34,25,75,129,38*7A
1629322252845774 1629322252845 
$GPGSV,4,3,15,26,03,240,31,29,70,247,35,31,33,231,50,32,06,295,31*7E
1629322252845823 1629322252845 
$GPGSV,4,4,15,46,14,289,,48,17,292,,51,30,308,*46
1629322252846605 1629322252846 
$GLGSV,2,1,08,74,15,041,27,75,70,055,34,76,48,211,38,77,00,217,*6B
1629322252846693 1629322252846 
$GLGSV,2,2,08,84,04,146,13,85,60,155,41,86,63,311,22,87,01,322,18*67
1629322252846743 1629322252846 
$GNGLL,3849.70257,S,06804.16482,W,213053.00,A,A*7C
1629322253867380 1629322253867 
$GNRMC,213054.00,A,3849.70246,S,06804.16472,W,0.556,49.76,180821,,,A*4B
1629322253867392 1629322253867 
$GNVTG,49.76,T,,M,0.556,N,1.030,K,A*1B
1629322253867838 1629322253867 
$GNGGA,213054.00,3849.70246,S,06804.16472,W,1,12,0.89,282.0,M,22.7,M,,*4C
1629322253867920 1629322253867 
$GNGSA,A,3,25,12,29,02,24,20,31,05,18,51,,,1.58,0.89,1.31*11
1629322253867992 1629322253867 
$GNGSA,A,3,74,85,76,86,,,,,,,,,1.58,0.89,1.31*13
1629322253868678 1629322253868 
$GPGSV,4,1,15,02,29,133,42,05,12,066,33,11,24,135,,12,44,084,23*7F
1629322253868702 1629322253868 
$GPGSV,4,2,15,18,20,345,41,20,18,098,29,24,06,017,27,25,75,129,33*7A
1629322253868786 1629322253868 
$GPGSV,4,3,15,26,03,240,31,29,70,247,44,31,33,231,55,32,06,295,*7F
1629322253868808 1629322253868 
$GPGSV,4,4,15,46,14,289,,48,17,292,,51,30,308,35*40
1629322253869962 1629322253869 
$GLGSV,2,1,08,74,15,041,26,75,70,055,27,76,48,211,34,77,00,217,*64
1629322253870081 1629322253870 
$GLGSV,2,2,08,84,04,146,12,85,60,155,41,86,63,311,23,87,01,322,16*69
1629322253870717 1629322253870 
$GNGLL,3849.70246,S,06804.16472,W,213054.00,A,A*74
1629322254853592 1629322254853 
$GNRMC,213055.00,A,3849.70223,S,06804.16427,W,1.757,61.82,180821,,,A*4A
1629322254853814 1629322254853 
$GNVTG,61.82,T,,M,1.757,N,3.255,K,A*1B
1629322254854081 1629322254854 
$GNGGA,213055.00,3849.70223,S,06804.16427,W,1,12,0.85,282.6,M,22.7,M,,*44
1629322254854199 1629322254854 
$GNGSA,A,3,25,12,29,02,20,31,05,18,51,,,,1.59,0.85,1.35*1E
1629322254854246 1629322254854 
$GNGSA,A,3,74,85,76,86,,,,,,,,,1.59,0.85,1.35*1A
1629322254855151 1629322254855 
$GPGSV,4,1,15,02,29,133,41,05,12,066,29,11,24,135,,12,44,084,37*72
1629322254855163 1629322254855 
$GPGSV,4,2,15,18,20,345,38,20,18,098,35,24,06,017,23,25,75,129,29*76
1629322254855169 1629322254855 
$GPGSV,4,3,15,26,03,240,26,29,70,247,40,31,33,231,50,32,06,295,*78
1629322254855175 1629322254855 
$GPGSV,4,4,15,46,14,289,,48,17,292,,51,30,308,40*42
1629322254855762 1629322254855 
$GLGSV,2,1,08,74,15,041,24,75,70,055,29,76,48,211,41,77,00,217,*6A
1629322254855884 1629322254855 
$GLGSV,2,2,08,84,04,146,09,85,60,155,45,86,63,311,25,87,01,322,15*62
1629322254855975 1629322254855 
$GNGLL,3849.70223,S,06804.16427,W,213055.00,A,A*76
1629322255852313 1629322255852 
$GNRMC,213056.00,A,3849.70200,S,06804.16355,W,2.041,65.39,180821,,,A*4D
1629322255852325 1629322255852 
$GNVTG,65.39,T,,M,2.041,N,3.780,K,A*11
1629322255852331 1629322255852 
$GNGGA,213056.00,3849.70200,S,06804.16355,W,1,12,0.85,283.2,M,22.7,M,,*41
1629322255852338 1629322255852 
$GNGSA,A,3,25,12,29,02,20,31,05,18,51,,,,1.59,0.85,1.35*1E
1629322255853352 1629322255853 
$GNGSA,A,3,74,85,76,86,,,,,,,,,1.59,0.85,1.35*1A
1629322255854302 1629322255854 
$GPGSV,4,1,15,02,29,133,34,05,12,066,29,11,24,135,,12,44,084,39*7E
1629322255854332 1629322255854 
$GPGSV,4,2,15,18,20,345,36,20,18,098,31,24,06,017,23,25,75,129,30*74
1629322255854407 1629322255854 
$GPGSV,4,3,15,26,03,240,26,29,70,247,42,31,33,231,50,32,06,295,*7A
1629322255854455 1629322255854 
$GPGSV,4,4,15,46,14,289,,48,17,292,,51,30,308,31*44
1629322255854825 1629322255854 
$GLGSV,2,1,08,74,15,041,29,75,70,055,36,76,48,211,40,77,00,217,*68
1629322255854852 1629322255854 
$GLGSV,2,2,08,84,04,146,12,85,60,155,43,86,63,311,31,87,01,322,15*6B
1629322255854906 1629322255854 
$GNGLL,3849.70200,S,06804.16355,W,213056.00,A,A*76
1629322256859245 1629322256859 
$GNRMC,213057.00,A,3849.70182,S,06804.16284,W,1.903,64.91,180821,,,A*47
1629322256859257 1629322256859 
$GNVTG,64.91,T,,M,1.903,N,3.524,K,A*12
1629322256859263 1629322256859 
$GNGGA,213057.00,3849.70182,S,06804.16284,W,1,12,0.85,283.4,M,22.7,M,,*42
1629322256859270 1629322256859 
$GNGSA,A,3,25,12,29,02,20,31,05,18,51,,,,1.59,0.85,1.35*1E
1629322256859276 1629322256859 
$GNGSA,A,3,74,85,76,86,,,,,,,,,1.59,0.85,1.35*1A
1629322256862010 1629322256862 
$GPGSV,4,1,15,02,29,133,37,05,12,066,33,11,24,135,,12,44,084,37*78
1629322256862026 1629322256862 
$GPGSV,4,2,15,18,20,345,30,20,18,098,31,24,06,017,27,25,75,129,38*7E
1629322256862034 1629322256862 
$GPGSV,4,3,15,26,03,240,26,29,70,247,37,31,33,231,44,32,06,295,31*7F
1629322256862040 1629322256862 
$GPGSV,4,4,15,46,14,289,,48,17,292,,51,30,308,37*42
1629322256862053 1629322256862 
$GLGSV,2,1,08,74,15,041,28,75,70,055,33,76,48,211,36,77,00,217,*6D
1629322256862670 1629322256862 
$GLGSV,2,2,08,84,04,146,11,85,60,155,46,86,63,311,30,87,01,322,16*6F
1629322256862678 1629322256862 
$GNGLL,3849.70182,S,06804.16284,W,213057.00,A,A*73
1629322257850363 1629322257850 
$GNRMC,213058.00,A,3849.70161,S,06804.16204,W,2.305,62.69,180821,,,A*43
1629322257850375 1629322257850 
$GNVTG,62.69,T,,M,2.305,N,4.269,K,A*15
1629322257850381 1629322257850 
$GNGGA,213058.00,3849.70161,S,06804.16204,W,1,12,0.85,283.5,M,22.7,M,,*49
1629322257850853 1629322257850 
$GNGSA,A,3,25,12,29,02,20,32,31,05,18,51,,,1.59,0.85,1.35*1F
1629322257850898 1629322257850 
$GNGSA,A,3,74,85,76,86,,,,,,,,,1.59,0.85,1.35*1A
1629322257851859 1629322257851 
$GPGSV,4,1,15,02,29,133,46,05,12,066,29,11,24,135,,12,44,084,37*75
1629322257851899 1629322257851 
$GPGSV,4,2,15,18,21,345,28,20,18,098,33,24,06,017,,25,75,129,27*7F
1629322257852058 1629322257852 
$GPGSV,4,3,15,26,03,240,28,29,70,247,36,31,33,231,42,32,06,295,30*77
1629322257852825 1629322257852 
$GPGSV,4,4,15,46,14,289,,48,17,292,,51,30,308,34*41
1629322257854353 1629322257854 
$GLGSV,2,1,08,74,15,041,28,75,70,055,38,76,48,211,40,77,00,217,*67
1629322257854366 1629322257854 
$GLGSV,2,2,08,84,04,146,10,85,60,155,46,86,63,311,29,87,01,322,17*67
1629322257854372 1629322257854 
$GNGLL,3849.70161,S,06804.16204,W,213058.00,A,A*79
1629322258849330 1629322258849 
$GNRMC,213059.00,A,3849.70138,S,06804.16139,W,1.561,53.04,180821,,,A*4D
1629322258849342 1629322258849 
$GNVTG,53.04,T,,M,1.561,N,2.890,K,A*11
1629322258849348 1629322258849 
$GNGGA,213059.00,3849.70138,S,06804.16139,W,1,12,0.85,283.6,M,22.7,M,,*4A
1629322258849627 1629322258849 
$GNGSA,A,3,25,12,29,02,20,32,31,05,18,51,,,1.59,0.85,1.35*1F
1629322258849714 1629322258849 
$GNGSA,A,3,74,85,76,86,,,,,,,,,1.59,0.85,1.35*1A
1629322258850764 1629322258850 
$GPGSV,4,1,15,02,29,133,45,05,12,066,32,11,24,135,,12,44,084,34*7F
1629322258850841 1629322258850 
$GPGSV,4,2,15,18,21,345,27,20,18,098,31,24,06,017,,25,75,129,35*71
1629322258850906 1629322258850 
$GPGSV,4,3,15,26,03,240,27,29,70,247,41,31,33,231,48,32,06,295,29*7A
1629322258850947 1629322258850 
$GPGSV,4,4,15,46,14,289,,48,17,292,,51,30,308,37*42
1629322258851852 1629322258851 
$GLGSV,2,1,08,74,15,041,28,75,70,055,33,76,48,211,45,77,00,217,*69
1629322258851877 1629322258851 
$GLGSV,2,2,08,84,04,146,13,85,60,155,45,86,63,311,29,87,01,322,16*66
1629322258851917 1629322258851 
$GNGLL,3849.70138,S,06804.16139,W,213059.00,A,A*79
1629322259853323 1629322259853 
$GNRMC,213100.00,A,3849.70087,S,06804.16101,W,1.436,34.16,180821,,,A*4F
1629322259853336 1629322259853 
$GNVTG,34.16,T,,M,1.436,N,2.659,K,A*1B
1629322259853342 1629322259853 
$GNGGA,213100.00,3849.70087,S,06804.16101,W,1,12,0.85,282.8,M,22.7,M,,*46
1629322259854253 1629322259854 
$GNGSA,A,3,25,12,29,02,20,32,31,05,18,51,,,1.59,0.85,1.35*1F
1629322259854265 1629322259854 
$GNGSA,A,3,74,85,76,86,,,,,,,,,1.59,0.85,1.35*1A
1629322259854722 1629322259854 
$GPGSV,4,1,15,02,29,133,42,05,12,066,31,11,24,135,,12,44,084,33*7C
1629322259854750 1629322259854 
$GPGSV,4,2,15,18,21,345,39,20,18,099,32,24,06,017,,25,75,129,34*7D
1629322259854817 1629322259854 
$GPGSV,4,3,15,26,03,240,,29,70,247,37,31,33,231,45,32,06,295,29*73
1629322259854858 1629322259854 
$GPGSV,4,4,15,46,14,289,,48,17,292,,51,30,308,35*40
1629322259855984 1629322259855 
$GLGSV,2,1,08,74,15,041,28,75,70,055,28,76,48,211,29,77,00,217,*69
1629322259856967 1629322259856 
$GLGSV,2,2,08,84,04,146,11,85,60,155,44,86,63,311,34,87,01,322,15*6A
1629322259857224 1629322259857 
$GNGLL,3849.70087,S,06804.16101,W,213100.00,A,A*7A
1629322260863900 1629322260863 
$GNRMC,213101.00,A,3849.70054,S,06804.16092,W,0.202,,180821,,,A*65
1629322260863922 1629322260863 
$GNVTG,,T,,M,0.202,N,0.373,K,A*3A
1629322260864385 1629322260864 
$GNGGA,213101.00,3849.70054,S,06804.16092,W,1,12,0.85,282.4,M,22.7,M,,*4E
1629322260864560 1629322260864 
$GNGSA,A,3,25,12,29,02,20,32,31,05,18,51,,,1.59,0.85,1.35*1F
1629322260864602 1629322260864 
$GNGSA,A,3,74,85,76,86,,,,,,,,,1.59,0.85,1.35*1A
1629322260865098 1629322260865 
$GPGSV,4,1,15,02,29,133,44,05,12,066,24,11,24,135,,12,44,084,37*7A
1629322260865703 1629322260865 
$GPGSV,4,2,15,18,21,345,42,20,18,099,32,24,06,017,29,25,75,129,29*76
1629322260865731 1629322260865 
$GPGSV,4,3,15,26,03,240,25,29,70,247,38,31,33,231,44,32,06,295,30*72
1629322260865788 1629322260865 
$GPGSV,4,4,15,46,14,289,,48,17,292,,51,30,308,29*4D
1629322260866279 1629322260866 
$GLGSV,2,1,08,74,15,041,27,75,70,055,28,76,48,211,39,77,00,217,*67
1629322260866291 1629322260866 
$GLGSV,2,2,08,84,04,146,12,85,60,155,40,86,63,311,31,87,01,322,13*6E
1629322260866366 1629322260866 
$GNGLL,3849.70054,S,06804.16092,W,213101.00,A,A*7E
1629322261866849 1629322261866 
$GNRMC,213102.00,A,3849.70030,S,06804.16092,W,0.049,,180821,,,A*69
1629322261866861 1629322261866 
$GNVTG,,T,,M,0.049,N,0.091,K,A*38
1629322261866941 1629322261866 
$GNGGA,213102.00,3849.70030,S,06804.16092,W,1,12,0.77,282.0,M,22.7,M,,*46
1629322261867531 1629322261867 
$GNGSA,A,3,25,12,29,02,24,20,32,31,05,18,51,,1.34,0.77,1.10*18
1629322261867613 1629322261867 
$GNGSA,A,3,74,85,76,86,,,,,,,,,1.34,0.77,1.10*1B
1629322261868086 1629322261868 
$GPGSV,4,1,15,02,29,133,45,05,12,066,25,11,24,135,,12,44,084,36*7B
1629322261868425 1629322261868 
$GPGSV,4,2,15,18,21,345,41,20,18,099,31,24,06,017,28,25,75,129,33*7C
1629322261868547 1629322261868 
$GPGSV,4,3,15,26,03,240,30,29,70,247,40,31,33,231,45,32,06,295,30*78
1629322261868655 1629322261868 
$GPGSV,4,4,15,46,14,289,,48,17,292,,51,30,308,29*4D
1629322261869095 1629322261869 
$GLGSV,2,1,08,74,15,041,27,75,70,055,33,76,48,211,39,77,00,217,*6D
1629322261869665 1629322261869 
$GLGSV,2,2,08,84,04,146,10,85,60,155,41,86,63,311,32,87,01,322,11*6C
1629322261869804 1629322261869 
$GNGLL,3849.70030,S,06804.16092,W,213102.00,A,A*7F
1629322262852446 1629322262852 
$GNRMC,213103.00,A,3849.70012,S,06804.16089,W,0.027,,180821,,,A*6A
1629322262852458 1629322262852 
$GNVTG,,T,,M,0.027,N,0.049,K,A*35
1629322262852843 1629322262852 
$GNGGA,213103.00,3849.70012,S,06804.16089,W,1,12,0.77,281.6,M,22.7,M,,*48
1629322262852958 1629322262852 
$GNGSA,A,3,25,12,29,02,24,20,32,31,05,18,51,,1.34,0.77,1.10*18
1629322262853000 1629322262852 
$GNGSA,A,3,74,85,76,86,,,,,,,,,1.34,0.77,1.10*1B
1629322262854291 1629322262854 
$GPGSV,4,1,15,02,29,133,44,05,12,066,27,11,24,135,,12,44,084,37*79
1629322262854304 1629322262854 
$GPGSV,4,2,15,18,21,345,41,20,18,099,31,24,06,017,27,25,75,129,31*71
1629322262854395 1629322262854 
$GPGSV,4,3,15,26,03,240,,29,70,247,39,31,33,231,45,32,06,295,30*75
1629322262854442 1629322262854 
$GPGSV,4,4,15,46,14,289,,48,17,292,,51,30,308,31*44
1629322262854785 1629322262854 
$GLGSV,2,1,08,74,15,041,27,75,70,055,33,76,48,211,39,77,00,217,*6D
1629322262854797 1629322262854 
$GLGSV,2,2,08,84,04,146,10,85,60,155,42,86,63,310,32,87,01,322,*6E
1629322262854851 1629322262854 
$GNGLL,3849.70012,S,06804.16089,W,213103.00,A,A*74
1629322263868522 1629322263868 
$GNRMC,213104.00,A,3849.69990,S,06804.16084,W,0.463,27.75,180821,,,A*46
1629322263868552 1629322263868 
$GNVTG,27.75,T,,M,0.463,N,0.858,K,A*10
1629322263868557 1629322263868 
$GNGGA,213104.00,3849.69990,S,06804.16084,W,1,12,0.77,281.6,M,22.7,M,,*49
1629322263868563 1629322263868 
$GNGSA,A,3,25,12,29,02,24,20,32,31,05,18,51,,1.34,0.77,1.10*18
1629322263868569 1629322263868 
$GNGSA,A,3,74,85,76,86,,,,,,,,,1.34,0.77,1.10*1B
1629322263868906 1629322263868 
$GPGSV,4,1,15,02,29,133,40,05,12,066,26,11,24,135,,12,44,084,38*73
1629322263869089 1629322263869 
$GPGSV,4,2,15,18,21,345,44,20,18,099,35,24,06,017,26,25,75,129,35*75
1629322263869149 1629322263869 
$GPGSV,4,3,15,26,03,240,24,29,70,247,39,31,33,231,49,32,06,295,23*7D
1629322263869800 1629322263869 
$GPGSV,4,4,15,46,14,289,,48,17,292,,51,30,308,29*4D
1629322263870839 1629322263870 
$GLGSV,2,1,08,74,15,041,32,75,70,055,41,76,48,211,43,77,00,217,*61
1629322263870917 1629322263870 
$GLGSV,2,2,08,84,04,146,10,85,60,155,41,86,63,310,32,87,01,322,*6D
1629322263870965 1629322263870 
$GNGLL,3849.69990,S,06804.16084,W,213104.00,A,A*75
1629322264859541 1629322264859 
$GNRMC,213105.00,A,3849.69960,S,06804.16044,W,1.761,52.74,180821,,,A*47
1629322264859553 1629322264859 
$GNVTG,52.74,T,,M,1.761,N,3.261,K,A*10
1629322264861817 1629322264861 
$GNGGA,213105.00,3849.69960,S,06804.16044,W,1,12,0.77,281.5,M,22.7,M,,*48
1629322264861830 1629322264861 
$GNGSA,A,3,25,12,29,02,24,20,32,31,05,18,51,,1.34,0.77,1.10*18
1629322264861837 1629322264861 
$GNGSA,A,3,74,85,76,86,,,,,,,,,1.34,0.77,1.10*1B
1629322264861849 1629322264861 
$GPGSV,4,1,15,02,29,133,41,05,12,066,34,11,24,135,,12,44,084,38*71
1629322264861921 1629322264861 
$GPGSV,4,2,15,18,21,345,44,20,18,099,34,24,06,017,24,25,75,126,39*75
1629322264862090 1629322264862 
$GPGSV,4,3,15,26,03,240,24,29,70,247,45,31,33,231,52,32,06,295,25*7A
1629322264862741 1629322264862 
$GPGSV,4,4,15,46,14,289,,48,17,292,,51,30,308,28*4C
1629322264863655 1629322264863 
$GLGSV,2,1,08,74,15,041,31,75,70,055,33,76,49,211,46,77,00,217,*63
1629322264863836 1629322264863 
$GLGSV,2,2,08,84,04,146,12,85,60,155,38,86,63,310,28,87,01,322,*6A
1629322264863886 1629322264863 
$GNGLL,3849.69960,S,06804.16044,W,213105.00,A,A*77
1629322265852383 1629322265852 
$GNRMC,213106.00,A,3849.69929,S,06804.15971,W,2.280,61.89,180821,,,A*4E
1629322265852395 1629322265852 
$GNVTG,61.89,T,,M,2.280,N,4.222,K,A*1B
1629322265852868 1629322265852 
$GNGGA,213106.00,3849.69929,S,06804.15971,W,1,12,0.85,281.6,M,22.7,M,,*44
1629322265852985 1629322265852 
$GNGSA,A,3,25,12,29,02,20,31,05,18,51,,,,1.59,0.85,1.35*1E
1629322265853876 1629322265853 
$GNGSA,A,3,74,85,76,86,,,,,,,,,1.59,0.85,1.35*1A
1629322265854432 1629322265854 
$GPGSV,4,1,15,02,29,133,41,05,12,066,35,11,24,135,,12,44,084,35*7D
1629322265854444 1629322265854 
$GPGSV,4,2,15,18,21,345,39,20,18,099,29,24,06,017,,25,75,126,35*79
1629322265854535 1629322265854 
$GPGSV,4,3,15,26,03,239,,29,70,247,41,31,33,231,52,32,06,295,*71
1629322265854582 1629322265854 
$GPGSV,4,4,15,46,14,289,,48,17,292,,51,30,308,35*40
1629322265854890 1629322265854 
$GLGSV,2,1,08,74,15,041,34,75,70,055,31,76,49,211,41,77,00,217,*63
1629322265854934 1629322265854 
$GLGSV,2,2,08,84,04,146,11,85,60,155,40,86,63,310,32,87,01,322,*6D
1629322265854992 1629322265854 
$GNGLL,3849.69929,S,06804.15971,W,213106.00,A,A*75
1629322266852481 1629322266852 
$GNRMC,213107.00,A,3849.69881,S,06804.15886,W,2.892,46.42,180821,,,A*4E
1629322266852729 1629322266852 
$GNVTG,46.42,T,,M,2.892,N,5.357,K,A*12
1629322266853086 1629322266853 
$GNGGA,213107.00,3849.69881,S,06804.15886,W,1,12,0.93,281.6,M,22.7,M,,*48
1629322266853153 1629322266853 
$GNGSA,A,3,25,12,29,02,20,31,05,18,51,,,,1.73,0.93,1.46*15
1629322266853883 1629322266853 
$GNGSA,A,3,74,85,76,86,,,,,,,,,1.73,0.93,1.46*11
1629322266854448 1629322266854 
$GPGSV,4,1,15,02,29,133,44,05,12,066,30,11,24,135,,12,44,084,40*7F
1629322266854461 1629322266854 
$GPGSV,4,2,15,18,21,345,30,20,18,099,36,24,06,017,24,25,75,126,38*75
1629322266854538 1629322266854 
$GPGSV,4,3,15,26,03,239,27,29,70,247,40,31,33,231,46,32,06,295,*70
1629322266854582 1629322266854 
$GPGSV,4,4,15,46,14,289,,48,17,292,,51,30,308,42*40
1629322266854858 1629322266854 
$GLGSV,2,1,08,74,15,041,31,75,70,055,38,76,49,211,43,77,00,217,*6D
1629322266854926 1629322266854 
$GLGSV,2,2,08,84,04,146,13,85,60,155,39,86,63,310,29,87,01,322,*6B
1629322266854971 1629322266854 
$GNGLL,3849.69881,S,06804.15886,W,213107.00,A,A*7E
1629322267847283 1629322267847 
$GNRMC,213108.00,A,3849.69816,S,06804.15831,W,2.259,39.29,180821,,,A*4B
1629322267847295 1629322267847 
$GNVTG,39.29,T,,M,2.259,N,4.184,K,A*17
1629322267847302 1629322267847 
$GNGGA,213108.00,3849.69816,S,06804.15831,W,1,12,0.92,281.5,M,22.7,M,,*47
1629322267847308 1629322267847 
$GNGSA,A,3,25,12,29,02,20,31,05,18,,,,,1.66,0.92,1.38*1D
1629322267847553 1629322267847 
$GNGSA,A,3,74,85,76,86,,,,,,,,,1.66,0.92,1.38*1D
1629322267848462 1629322267848 
$GPGSV,4,1,15,02,29,133,43,05,12,066,38,11,24,135,,12,44,084,34*73
1629322267848474 1629322267848 
$GPGSV,4,2,15,18,21,345,27,20,18,099,37,24,06,017,25,25,75,126,41*7D
1629322267848480 1629322267848 
$GPGSV,4,3,15,26,03,239,25,29,70,246,39,31,33,231,33,32,06,295,*7F
1629322267848486 1629322267848 
$GPGSV,4,4,15,46,14,289,,48,17,292,,51,30,308,*46
1629322267848662 1629322267848 
$GLGSV,2,1,08,74,15,041,30,75,70,055,43,76,49,211,42,77,00,217,*61
1629322267848684 1629322267848 
$GLGSV,2,2,08,84,04,146,11,85,60,155,43,86,63,310,28,87,01,322,*65
1629322267848732 1629322267848 
$GNGLL,3849.69816,S,06804.15831,W,213108.00,A,A*73
1629322268845554 1629322268845 
$GNRMC,213109.00,A,3849.69757,S,06804.15811,W,1.981,8.16,180821,,,A*71
1629322268845754 1629322268845 
$GNVTG,8.16,T,,M,1.981,N,3.669,K,A*27
1629322268845876 1629322268845 
$GNGGA,213109.00,3849.69757,S,06804.15811,W,1,12,0.97,280.6,M,22.7,M,,*49
1629322268845937 1629322268845 
$GNGSA,A,3,25,12,29,02,20,31,05,18,,,,,1.70,0.97,1.40*10
1629322268845984 1629322268845 
$GNGSA,A,3,74,85,76,86,,,,,,,,,1.70,0.97,1.40*10
1629322268847129 1629322268847 
$GPGSV,4,1,15,02,29,133,45,05,12,066,37,11,24,135,,12,44,084,31*7F
1629322268847658 1629322268847 
$GPGSV,4,2,15,18,21,345,30,20,18,099,41,24,06,017,,25,75,126,39*72
1629322268847760 1629322268847 
$GPGSV,4,3,15,26,03,239,,29,70,246,38,31,33,231,46,32,06,295,*7B
1629322268847780 1629322268847 
$GPGSV,4,4,15,46,14,289,,48,17,292,,51,30,308,*46
1629322268848319 1629322268848 
$GLGSV,2,1,08,74,15,041,30,75,70,055,35,76,49,211,44,77,00,217,*66
1629322268848326 1629322268848 
$GLGSV,2,2,08,84,04,146,15,85,60,155,47,86,63,310,27,87,01,322,*6A
1629322268848406 1629322268848 
$GNGLL,3849.69757,S,06804.15811,W,213109.00,A,A*7A
1629322269852872 1629322269852 
$GNRMC,213110.00,A,3849.69726,S,06804.15807,W,0.528,8.01,180821,,,A*70
1629322269852982 1629322269852 
$GNVTG,8.01,T,,M,0.528,N,0.978,K,A*23
1629322269853828 1629322269853 
$GNGGA,213110.00,3849.69726,S,06804.15807,W,1,12,0.85,280.2,M,22.7,M,,*47
1629322269853928 1629322269853 
$GNGSA,A,3,25,12,29,02,20,31,05,18,51,,,,1.59,0.85,1.35*1E
1629322269853955 1629322269853 
$GNGSA,A,3,74,85,76,86,,,,,,,,,1.59,0.85,1.35*1A
1629322269854515 1629322269854 
$GPGSV,4,1,15,02,29,133,48,05,12,066,38,11,24,135,,12,44,084,35*79
1629322269854540 1629322269854 
$GPGSV,4,2,15,18,21,345,31,20,18,099,39,24,06,017,,25,75,126,37*72
1629322269854630 1629322269854 
$GPGSV,4,3,15,26,03,239,,29,70,246,37,31,33,232,44,32,06,295,24*73
1629322269854654 1629322269854 
$GPGSV,4,4,15,46,14,289,,48,17,292,,51,30,308,37*42
1629322269854939 1629322269854 
$GLGSV,2,1,08,74,15,041,36,75,70,055,31,76,49,211,46,77,00,217,*66
1629322269855092 1629322269855 
$GLGSV,2,2,08,84,04,146,15,85,60,155,45,86,63,310,31,87,01,322,*6F
1629322269855121 1629322269855 
$GNGLL,3849.69726,S,06804.15807,W,213110.00,A,A*73
1629322270862779 1629322270862 
$GNRMC,213111.00,A,3849.69731,S,06804.15796,W,0.062,,180821,,,A*6C
1629322270862803 1629322270862 
$GNVTG,,T,,M,0.062,N,0.114,K,A*3D
1629322270862924 1629322270862 
$GNGGA,213111.00,3849.69731,S,06804.15796,W,1,12,0.85,280.0,M,22.7,M,,*45
1629322270863095 1629322270863 
$GNGSA,A,3,25,12,29,02,20,32,31,05,18,51,,,1.60,0.85,1.35*15
1629322270863174 1629322270863 
$GNGSA,A,3,74,85,76,86,,,,,,,,,1.60,0.85,1.35*10
1629322270864131 1629322270864 
$GPGSV,4,1,15,02,29,133,45,05,12,066,30,11,24,135,,12,44,084,35*7C
1629322270864191 1629322270864 
$GPGSV,4,2,15,18,21,345,30,20,18,099,26,24,06,017,,25,75,126,30*7A
1629322270864272 1629322270864 
$GPGSV,4,3,15,26,03,239,,29,70,246,38,31,33,232,40,32,06,296,32*7C
1629322270864316 1629322270864 
$GPGSV,4,4,15,46,14,289,,48,17,292,,51,30,308,45*47
1629322270864653 1629322270864 
$GLGSV,2,1,08,74,15,041,36,75,70,055,35,76,49,211,45,77,00,217,*61
1629322270864679 1629322270864 
$GLGSV,2,2,08,84,04,146,19,85,60,155,46,86,63,310,32,87,01,322,*63
1629322270864732 1629322270864 
$GNGLL,3849.69731,S,06804.15796,W,213111.00,A,A*73
1629322271862476 1629322271862 
$GNRMC,213112.00,A,3849.69743,S,06804.15779,W,0.068,,180821,,,A*61
1629322271862487 1629322271862 
$GNVTG,,T,,M,0.068,N,0.125,K,A*35
1629322271862800 1629322271862 
$GNGGA,213112.00,3849.69743,S,06804.15779,W,1,12,0.79,279.5,M,22.7,M,,*42
1629322271862904 1629322271862 
$GNGSA,A,3,25,12,29,02,20,32,31,05,18,51,,,1.37,0.79,1.12*11
1629322271862910 1629322271862 
$GNGSA,A,3,74,85,76,86,,,,,,,,,1.37,0.79,1.12*14
1629322271864378 1629322271864 
$GPGSV,4,1,15,02,29,133,43,05,12,066,29,11,24,135,,12,44,084,35*72
1629322271864405 1629322271864 
$GPGSV,4,2,15,18,21,345,30,20,18,099,31,24,06,017,,25,75,126,30*7C
1629322271864497 1629322271864 
$GPGSV,4,3,15,26,03,239,,29,70,246,38,31,33,232,38,32,06,296,32*73
1629322271864520 1629322271864 
$GPGSV,4,4,15,46,14,289,,48,17,292,,51,30,308,45*47
1629322271864862 1629322271864 
$GLGSV,2,1,08,74,15,041,36,75,70,055,36,76,49,211,46,77,00,217,*61
1629322271864905 1629322271864 
$GLGSV,2,2,08,84,04,146,16,85,60,155,46,86,63,310,33,87,01,322,*6D
1629322271864957 1629322271864 
$GNGLL,3849.69743,S,06804.15779,W,213112.00,A,A*74
1629322272854416 1629322272854 
$GNRMC,213113.00,A,3849.69746,S,06804.15778,W,0.046,,180821,,,A*68
1629322272854428 1629322272854 
$GNVTG,,T,,M,0.046,N,0.085,K,A*32
1629322272854434 1629322272854 
$GNGGA,213113.00,3849.69746,S,06804.15778,W,1,12,0.85,279.2,M,22.7,M,,*43
1629322272854441 1629322272854 
$GNGSA,A,3,25,12,29,02,20,32,31,05,18,51,,,1.60,0.85,1.35*15
1629322272854447 1629322272854 
$GNGSA,A,3,74,85,76,86,,,,,,,,,1.60,0.85,1.35*10
1629322272854725 1629322272854 
$GPGSV,4,1,15,02,29,133,50,05,12,066,30,11,24,135,,12,44,084,33*7E
1629322272854749 1629322272854 
$GPGSV,4,2,15,18,21,345,25,20,18,099,25,24,06,017,,25,75,126,37*7A
1629322272854841 1629322272854 
$GPGSV,4,3,15,26,03,239,,29,70,246,38,31,33,232,41,32,06,296,25*7B
1629322272854881 1629322272854 
$GPGSV,4,4,15,46,14,289,,48,17,292,,51,30,308,41*43
1629322272856707 1629322272856 
$GLGSV,2,1,08,74,15,041,35,75,70,055,31,76,49,211,46,77,00,217,*65
1629322272856792 1629322272856 
$GLGSV,2,2,08,84,04,146,15,85,60,155,45,86,63,310,32,87,01,322,*6C
1629322272856826 1629322272856 
$GNGLL,3849.69746,S,06804.15778,W,213113.00,A,A*71
1629322273854803 1629322273854 
$GNRMC,213114.00,A,3849.69755,S,06804.15783,W,0.048,,180821,,,A*67
1629322273854815 1629322273854 
$GNVTG,,T,,M,0.048,N,0.090,K,A*38
1629322273854821 1629322273854 
$GNGGA,213114.00,3849.69755,S,06804.15783,W,1,12,0.85,278.7,M,22.7,M,,*46
1629322273854827 1629322273854 
$GNGSA,A,3,25,12,29,02,20,32,31,05,18,51,,,1.60,0.85,1.35*15
1629322273854834 1629322273854 
$GNGSA,A,3,74,85,76,86,,,,,,,,,1.60,0.85,1.35*10
1629322273855085 1629322273855 
$GPGSV,4,1,15,02,29,133,50,05,12,066,30,11,24,135,,12,44,084,33*7E
1629322273855997 1629322273855 
$GPGSV,4,2,15,18,21,345,26,20,18,099,35,24,06,017,,25,75,126,38*77
1629322273856152 1629322273856 
$GPGSV,4,3,15,26,03,239,,29,70,246,39,31,33,232,44,32,06,296,25*7F
1629322273856820 1629322273856 
$GPGSV,4,4,15,46,14,289,,48,17,292,,51,30,308,37*42
1629322273857696 1629322273857 
$GLGSV,2,1,08,74,15,041,32,75,70,055,32,76,49,211,41,77,00,217,*66
1629322273857704 1629322273857 
$GLGSV,2,2,08,84,04,146,15,85,60,155,44,86,63,310,31,87,01,322,*6E
1629322273857815 1629322273857 
$GNGLL,3849.69755,S,06804.15783,W,213114.00,A,A*70
1629322274852097 1629322274852 
$GNRMC,213115.00,A,3849.69754,S,06804.15785,W,0.083,,180821,,,A*66
1629322274852109 1629322274852 
$GNVTG,,T,,M,0.083,N,0.153,K,A*31
1629322274852116 1629322274852 
$GNGGA,213115.00,3849.69754,S,06804.15785,W,1,12,0.85,278.5,M,22.7,M,,*42
1629322274852122 1629322274852 
$GNGSA,A,3,25,12,29,02,20,32,31,05,18,51,,,1.60,0.85,1.35*15
1629322274852128 1629322274852 
$GNGSA,A,3,74,85,76,86,,,,,,,,,1.60,0.85,1.35*10
1629322274854126 1629322274854 
$GPGSV,4,1,15,02,29,133,50,05,12,066,29,11,24,135,,12,44,084,31*74
1629322274854223 1629322274854 
$GPGSV,4,2,15,18,21,345,26,20,18,099,25,24,06,017,,25,75,126,37*79
1629322274854298 1629322274854 
$GPGSV,4,3,15,26,03,239,,29,70,246,38,31,33,232,40,32,06,296,27*78
1629322274854345 1629322274854 
$GPGSV,4,4,15,46,14,289,,48,17,292,,51,30,308,42*40
1629322274854739 1629322274854 
$GLGSV,2,1,08,74,15,041,35,75,70,055,32,76,49,211,48,77,00,217,*68
1629322274854766 1629322274854 
$GLGSV,2,2,08,84,04,146,16,85,60,155,45,86,63,310,32,87,01,322,*6F
1629322274854815 1629322274854 
$GNGLL,3849.69754,S,06804.15785,W,213115.00,A,A*76
1629322275846100 1629322275846 
$GNRMC,213116.00,A,3849.69742,S,06804.15776,W,0.630,13.83,180821,,,A*47
1629322275846111 1629322275846 
$GNVTG,13.83,T,,M,0.630,N,1.167,K,A*1E
1629322275846118 1629322275846 
$GNGGA,213116.00,3849.69742,S,06804.15776,W,1,12,0.79,278.3,M,22.7,M,,*4F
1629322275846124 1629322275846 
$GNGSA,A,3,25,12,29,02,20,32,31,05,18,51,,,1.37,0.79,1.12*11
1629322275846130 1629322275846 
$GNGSA,A,3,74,85,76,86,,,,,,,,,1.37,0.79,1.12*14
1629322275847192 1629322275847 
$GPGSV,4,1,15,02,29,133,47,05,12,066,37,11,24,135,,12,44,084,31*7D
1629322275847204 1629322275847 
$GPGSV,4,2,15,18,21,345,26,20,18,099,41,24,06,017,,25,75,126,35*79
1629322275847211 1629322275847 
$GPGSV,4,3,15,26,03,239,,29,70,246,36,31,33,232,40,32,06,296,27*76
1629322275847217 1629322275847 
$GPGSV,4,4,15,46,14,289,,48,17,292,,51,30,308,48*4A
1629322275847885 1629322275847 
$GLGSV,2,1,08,74,15,041,26,75,70,055,32,76,49,211,45,77,00,217,*67
1629322275847898 1629322275847 
$GLGSV,2,2,08,84,04,146,17,85,60,155,47,86,63,310,31,87,01,322,*6F
1629322275847970 1629322275847 
$GNGLL,3849.69742,S,06804.15776,W,213116.00,A,A*7E
1629322276848555 1629322276848 
$GNRMC,213117.00,A,3849.69700,S,06804.15753,W,1.542,12.82,180821,,,A*40
1629322276848567 1629322276848 
$GNVTG,12.82,T,,M,1.542,N,2.856,K,A*11
1629322276848573 1629322276848 
$GNGGA,213117.00,3849.69700,S,06804.15753,W,1,12,0.86,278.2,M,22.7,M,,*4E
1629322276848579 1629322276848 
$GNGSA,A,3,25,12,29,02,20,32,31,05,18,51,,,1.60,0.86,1.35*16
