--------------------------------------------------
--------------------------------------------------
--------------------------------------------------
--------------------------------------------------
1625324312301971 1625324312301 
$GNTXT,01,01,02,u-blox AG - www.u-blox.com*4E
1625324312302142 1625324312302 
$GNTXT,01,01,02,HW UBX-M8030 00080000*60
1625324312302159 1625324312302 
$GNTXT,01,01,02,EXT CORE 3.01 (107900)*33
1625324312302164 1625324312302 
$GNTXT,01,01,02,ROM BASE 2.01 (75331)*19
1625324312302170 1625324312302 
$GNTXT,01,01,02,FWVER=SPG 3.01*46
1625324312302183 1625324312302 
$GNTXT,01,01,02,PROTVER=18.00*11
1625324312302189 1625324312302 
$GNTXT,01,01,02,MOD=NEO-M8N-0*67
1625324312302195 1625324312302 
$GNTXT,01,01,02,FIS=0xEF4015 (100111)*58
1625324312302343 1625324312302 
$GNTXT,01,01,02,GPS;GLO;GAL;BDS*77
1625324312302349 1625324312302 
$GNTXT,01,01,02,SBAS;IMES;QZSS*49
1625324312302564 1625324312302 
$GNTXT,01,01,02,GNSS OTP=GPS;GLO*37
1625324312302669 1625324312302 
$GNTXT,01,01,02,LLC=FFFFFFFF-FFFFFFED-FFFFFFFF-FFFFFFFF-FFFFFF69*23
1625324312302727 1625324312302 
$GNTXT,01,01,02,ANTSUPERV=AC SD PDoS SR*3E
1625324312302749 1625324312302 
$GNTXT,01,01,02,ANTSTATUS=OK*25
1625324312303374 1625324312303 
$GNTXT,01,01,02,PF=86*76
1625324312482485 1625324312482 
$GNRMC,145832.00,A,3849.82903,S,06804.03362,W,0.042,,030721,,,A*61
1625324312482513 1625324312482 
$GNVTG,,T,,M,0.042,N,0.078,K,A*34
1625324312482629 1625324312482 
$GNGGA,145832.00,3849.82903,S,06804.03362,W,1,12,0.63,266.6,M,22.7,M,,*49
1625324312482711 1625324312482 
$GNGSA,A,3,07,09,30,06,02,04,16,20,51,,,,1.06,0.63,0.85*1F
1625324312482761 1625324312482 
$GNGSA,A,3,73,80,70,71,69,86,74,87,,,,,1.06,0.63,0.85*13
1625324312483735 1625324312483 
$GPGSV,4,1,15,02,26,275,35,04,20,097,34,05,07,223,22,06,26,310,34*71
1625324312483758 1625324312483 
$GPGSV,4,2,15,07,82,137,34,09,53,114,37,11,33,276,36,13,01,266,*7C
1625324312483902 1625324312483 
$GPGSV,4,3,15,14,06,001,21,16,11,142,30,20,26,227,25,30,54,312,33*7C
1625324312484026 1625324312484 
$GPGSV,4,4,15,46,14,289,,48,17,292,,51,30,307,30*4A
1625324312485602 1625324312485 
$GLGSV,3,1,10,69,08,066,29,70,60,105,30,71,47,207,38,72,04,231,26*62
1625324312485668 1625324312485 
$GLGSV,3,2,10,73,58,006,29,74,12,343,21,79,05,153,21,80,58,129,33*66
1625324312485704 1625324312485 
$GLGSV,3,3,10,86,10,275,09,87,09,214,23*62
1625324312485761 1625324312485 
$GNGLL,3849.82903,S,06804.03362,W,145832.00,A,A*79
1625324313478343 1625324313478 
$GNRMC,145833.00,A,3849.82905,S,06804.03375,W,0.056,,030721,,,A*65
1625324313478355 1625324313478 
$GNVTG,,T,,M,0.056,N,0.104,K,A*3B
1625324313478478 1625324313478 
$GNGGA,145833.00,3849.82905,S,06804.03375,W,1,12,0.63,266.8,M,22.7,M,,*46
1625324313478562 1625324313478 
$GNGSA,A,3,07,09,30,06,02,04,16,20,51,,,,1.06,0.63,0.85*1F
1625324313478634 1625324313478 
$GNGSA,A,3,73,80,70,71,69,86,74,87,,,,,1.06,0.63,0.85*13
1625324313480179 1625324313480 
$GPGSV,4,1,15,02,26,275,35,04,20,097,33,05,07,223,21,06,26,310,30*71
1625324313480209 1625324313480 
$GPGSV,4,2,15,07,82,137,33,09,53,114,37,11,33,276,36,13,01,266,*7B
1625324313480296 1625324313480 
$GPGSV,4,3,15,14,06,001,21,16,11,142,29,20,26,227,23,30,54,312,31*70
1625324313480315 1625324313480 
$GPGSV,4,4,15,46,14,289,,48,17,292,,51,30,307,28*43
1625324313480642 1625324313480 
$GLGSV,3,1,10,69,08,066,29,70,60,105,29,71,47,207,36,72,04,231,25*67
1625324313480709 1625324313480 
$GLGSV,3,2,10,73,58,006,28,74,12,343,23,79,05,153,19,80,58,129,32*6F
1625324313480752 1625324313480 
$GLGSV,3,3,10,86,10,275,08,87,09,214,24*64
1625324313480854 1625324313480 
$GNGLL,3849.82905,S,06804.03375,W,145833.00,A,A*78
1625324314477790 1625324314477 
$GNRMC,145834.00,A,3849.82910,S,06804.03390,W,0.108,,030721,,,A*67
1625324314477802 1625324314477 
$GNVTG,,T,,M,0.108,N,0.200,K,A*36
1625324314477808 1625324314477 
$GNGGA,145834.00,3849.82910,S,06804.03390,W,1,12,0.65,266.7,M,22.7,M,,*47
1625324314477814 1625324314477 
$GNGSA,A,3,07,09,30,06,02,04,16,20,51,,,,1.10,0.65,0.88*13
1625324314477821 1625324314477 
$GNGSA,A,3,73,80,70,71,69,86,74,87,,,,,1.10,0.65,0.88*1F
1625324314478664 1625324314478 
$GPGSV,4,1,15,02,26,275,36,04,20,097,29,05,07,223,21,06,26,310,30*79
1625324314478674 1625324314478 
$GPGSV,4,--------------------------------------------------
--------------------------------------------------
1625324323624028 1625324323624 
$GNTXT,01,01,02,u-blox AG - www.u-blox.com*4E
1625324323624157 1625324323624 
$GNTXT,01,01,02,HW UBX-M8030 00080000*60
1625324323624163 1625324323624 
$GNTXT,01,01,02,EXT CORE 3.01 (107900)*33
1625324323624169 1625324323624 
$GNTXT,01,01,02,ROM BASE 2.01 (75331)*19
1625324323624176 1625324323624 
$GNTXT,01,01,02,FWVER=SPG 3.01*46
1625324323624182 1625324323624 
$GNTXT,01,01,02,PROTVER=18.00*11
1625324323624188 1625324323624 
$GNTXT,01,01,02,MOD=NEO-M8N-0*67
1625324323624195 1625324323624 
$GNTXT,01,01,02,FIS=0xEF4015 (100111)*58
1625324323624204 1625324323624 
$GNTXT,01,01,02,GPS;GLO;GAL;BDS*77
1625324323624210 1625324323624 
$GNTXT,01,01,02,SBAS;IMES;QZSS*49
1625324323624215 1625324323624 
$GNTXT,01,01,02,GNSS OTP=GPS;GLO*37
1625324323624221 1625324323624 
$GNTXT,01,01,02,LLC=FFFFFFFF-FFFFFFED-FFFFFFFF-FFFFFFFF-FFFFFF69*23
1625324323624227 1625324323624 
$GNTXT,01,01,02,ANTSUPERV=AC SD PDoS SR*3E
1625324323624233 1625324323624 
$GNTXT,01,01,02,ANTSTATUS=OK*25
1625324323624240 1625324323624 
$GNTXT,01,01,02,PF=86*76
1625324323624785 1625324323624 
$GNRMC,145842.00,A,3849.83151,S,06804.03786,W,0.253,,030721,,,A*64
1625324323624877 1625324323624 
$GNVTG,,T,,M,0.253,N,0.469,K,A*32
1625324323625224 1625324323625 
$GNGGA,145842.00,3849.83151,S,06804.03786,W,1,12,0.72,266.2,M,22.7,M,,*4A
1625324323625295 1625324323625 
$GNGSA,A,3,07,09,30,06,02,04,16,20,,,,,1.20,0.72,0.95*1E
1625324323625382 1625324323625 
$GNGSA,A,3,73,80,70,71,69,86,74,87,,,,,1.20,0.72,0.95*16
1625324323625474 1625324323625 
$GPGSV,4,1,15,02,26,275,34,04,20,097,30,05,07,223,41,06,26,310,24*70
1625324323625534 1625324323625 
$GPGSV,4,2,15,07,82,137,33,09,53,114,36,11,33,276,35,13,01,266,*79
1625324323625605 1625324323625 
$GPGSV,4,3,15,14,06,001,22,16,11,142,27,20,27,227,35,30,54,312,31*7B
1625324323625664 1625324323625 
$GPGSV,4,4,15,46,14,289,,48,17,292,,51,30,307,*49
1625324323625743 1625324323625 
$GLGSV,3,1,10,69,08,066,23,70,60,105,22,71,47,207,37,72,04,231,34*67
1625324323625869 1625324323625 
$GLGSV,3,2,10,73,58,006,27,74,12,343,20,79,05,153,16,80,58,129,27*68
1625324323626345 1625324323626 
$GLGSV,3,3,10,86,10,275,12,87,09,214,42*6F
1625324323626446 1625324323626 
$GNGLL,3849.83151,S,06804.03786,W,145842.00,A,A*7E
1625324323626477 1625324323626 
$GNRMC,145843.00,A,3849.83166,S,06804.03800,W,0.166,,030721,,,A*65
1625324323626518 1625324323626 
$GNVTG,,T,,M,0.166,N,0.307,K,A*38
1625324323626611 1625324323626 
$GNGGA,145843.00,3849.83166,S,06804.03800,W,1,12,0.72,265.9,M,22.7,M,,*46
1625324323626666 1625324323626 
$GNGSA,A,3,07,09,30,06,02,04,16,20,,,,,1.20,0.72,0.95*1E
1625324323626740 1625324323626 
$GNGSA,A,3,73,80,70,71,69,86,74,87,,,,,1.20,0.72,0.95*16
1625324323626857 1625324323626 
$GPGSV,4,1,15,02,26,275,33,04,20,097,34,05,07,223,41,06,26,310,21*76
1625324323626989 1625324323626 
$GPGSV,4,2,15,07,82,137,35,09,53,114,36,11,33,276,35,13,01,266,*7F
1625324323627496 1625324323627 
$GPGSV,4,3,15,14,06,001,24,16,11,142,25,20,27,227,35,30,54,312,30*7E
1625324323627531 1625324323627 
$GPGSV,4,4,15,46,14,289,,48,17,292,,51,30,307,*49
1625324323627617 1625324323627 
$GLGSV,3,1,10,69,08,066,22,70,60,105,20,71,47,207,39,72,04,231,34*6A
1625324323627688 1625324323627 
$GLGSV,3,2,10,73,58,006,29,74,12,343,20,79,05,153,12,80,58,129,24*61
1625324323627728 1625324323627 
$GLGSV,3,3,10,86,10,275,11,87,09,214,42*6C
1625324323627784 1625324323627 
$GNGLL,3849.83166,S,06804.03800,W,145843.00,A,A*7A
1625324324504065 1625324324504 
$GNRMC,145844.00,A,3849.83179,S,06804.03807,W,0.068,,030721,,,A*64
1625324324504077 1625324324504 
$GNVTG,,T,,M,0.068,N,0.126,K,A*36
1625324324504084 1625324324504 
$GNGGA,145844.00,3849.83179,S,06804.03807,W,1,12,0.72,265.6,M,22.7,M,,*47
1625324324504090 1625324324504 
$GNGSA,A,3,07,09,30,06,02,04,16,20,,,,,1.20,0.72,0.95*1E
1625324324505598 1625324324505 
$GNGSA,A,3,73,80,70,71,69,86,74,87,,,,,1.20,0.72,0.95*16
1625324324505873 1625324324505 
$GPGSV,4,1,15,02,26,275,33,04,20,097,31,05,07,223,41,06,26,310,21*73
1625324324506393 1625324324506 
$GPGSV,4,2,15,07,82--------------------------------------------------
--------------------------------------------------
--------------------------------------------------
1625324353488573 1625324353488 
$GNRMC,145913.00,A,3849.84060,S,06804.05157,W,0.410,,030721,,,A*68
1625324353488732 1625324353488 
$GNVTG,,T,,M,0.410,N,0.759,K,A*33
1625324353489509 1625324353489 
$GNGGA,145913.00,3849.84060,S,06804.05157,W,1,12,0.61,267.7,M,22.7,M,,*41
1625324353489647 1625324353489 
$GNGSA,A,3,07,09,30,06,02,04,16,20,05,46,,,1.01,0.61,0.81*1D
1625324353489721 1625324353489 
$GNGSA,A,3,73,80,70,71,69,86,74,87,,,,,1.01,0.61,0.81*12
1625324353490579 1625324353490 
$GPGSV,4,1,15,02,26,275,41,04,20,097,36,05,07,223,33,06,26,310,30*74
1625324353490640 1625324353490 
$GPGSV,4,2,15,07,82,137,36,09,53,114,34,11,33,276,40,13,01,266,*7C
1625324353490723 1625324353490 
$GPGSV,4,3,15,14,06,001,21,16,11,142,25,20,27,227,36,30,55,312,36*7F
1625324353490769 1625324353490 
$GPGSV,4,4,15,46,14,289,31,48,17,292,37,51,30,307,*4F
1625324353492290 1625324353492 
$GLGSV,3,1,10,69,07,065,24,70,60,104,23,71,48,206,35,72,05,231,32*67
1625324353492488 1625324353492 
$GLGSV,3,2,10,73,59,006,27,74,12,343,24,79,05,153,20,80,58,129,34*6A
1625324353492576 1625324353492 
$GLGSV,3,3,10,86,10,275,19,87,09,214,36*67
1625324353492652 1625324353492 
$GNGLL,3849.84060,S,06804.05157,W,145913.00,A,A*73
1625324354301804 1625324354301 
$GNTXT,01,01,02,u-blox AG - www.u-blox.com*4E
1625324354301816 1625324354301 
$GNTXT,01,01,02,HW UBX-M8030 00080000*60
1625324354301822 1625324354301 
$GNTXT,01,01,02,EXT CORE 3.01 (107900)*33
1625324354301828 1625324354301 
$GNTXT,01,01,02,ROM BASE 2.01 (75331)*19
1625324354301834 1625324354301 
$GNTXT,01,01,02,FWVER=SPG 3.01*46
1625324354301841 1625324354301 
$GNTXT,01,01,02,PROTVER=18.00*11
1625324354301847 1625324354301 
$GNTXT,01,01,02,MOD=NEO-M8N-0*67
1625324354302929 1625324354302 
$GNTXT,01,01,02,FIS=0xEF4015 (100111)*58
1625324354302941 1625324354302 
$GNTXT,01,01,02,GPS;GLO;GAL;BDS*77
1625324354302947 1625324354302 
$GNTXT,01,01,02,SBAS;IMES;QZSS*49
1625324354303520 1625324354303 
$GNTXT,01,01,02,GNSS OTP=GPS;GLO*37
1625324354303670 1625324354303 
$GNTXT,01,01,02,LLC=FFFFFFFF-FFFFFFED-FFFFFFFF-FFFFFFFF-FFFFFF69*23
1625324354303681 1625324354303 
$GNTXT,01,01,02,ANTSUPERV=AC SD PDoS SR*3E
1625324354303733 1625324354303 
$GNTXT,01,01,02,ANTSTATUS=OK*25
1625324354304908 1625324354304 
$GNTXT,01,01,02,PF=86*76
1625324354510294 1625324354510 
$GNRMC,145914.00,A,3849.84067,S,06804.05167,W,0.039,,030721,,,A*64
1625324354510307 1625324354510 
$GNVTG,,T,,M,0.039,N,0.072,K,A*32
1625324354510431 1625324354510 
$GNGGA,145914.00,3849.84067,S,06804.05167,W,1,12,0.63,267.9,M,22.7,M,,*4E
1625324354510561 1625324354510 
$GNGSA,A,3,07,09,30,06,02,04,16,20,05,46,,,1.03,0.63,0.81*1D
1625324354510661 1625324354510 
$GNGSA,A,3,73,80,70,71,69,86,74,87,,,,,1.03,0.63,0.81*12
1625324354511729 1625324354511 
$GPGSV,4,1,15,02,26,275,41,04,20,097,37,05,07,223,30,06,26,310,30*76
1625324354511758 1625324354511 
$GPGSV,4,2,15,07,82,137,33,09,53,114,33,11,33,276,35,13,01,266,*7C
1625324354511888 1625324354511 
$GPGSV,4,3,15,14,06,001,20,16,11,142,23,20,27,227,36,30,55,312,36*78
1625324354512481 1625324354512 
$GPGSV,4,4,15,46,14,289,27,48,17,292,31,51,30,307,*4E
1625324354514247 1625324354514 
$GLGSV,3,1,10,69,07,065,22,70,60,104,23,71,48,206,34,72,05,231,32*60
1625324354515598 1625324354515 
$GLGSV,3,2,10,73,59,006,25,74,13,343,25,79,05,153,22,80,58,129,33*6D
1625324354515682 1625324354515 
$GLGSV,3,3,10,86,10,275,18,87,09,214,34*64
1625324354515762 1625324354515 
$GNGLL,3849.84067,S,06804.05167,W,145914.00,A,A*70
1625324355487284 1625324355487 
$GNRMC,145915.00,A,3849.84075,S,06804.05177,W,0.085,,030721,,,A*60
1625324355487296 1625324355487 
$GNVTG,,T,,M,0.085,N,0.158,K,A*3C
1625324355487918 1625324355487 
$GNGGA,145915.00,3849.84075,S,06804.05177,W,1,12,0.63,268.1,M,22.7,M,,*4A
1625324355488746 1625324355488 
$GNGSA,A,3,07,09,30,06,02,04,16,20,05,,,,1.03,0.63,0.81*1F
1625324355488759 1625324355488 
$GNGSA,A,3,73,80,70,71,69,86,74,87,,,,,1.03,0.63,0.81*12
1625324355489963 1625324355489 
$GPGSV,4,1,15,02,26,275,42,04,20,097,38,05,07,223,32,06,26,310,28*71
1625324355490572 1625324355490 
$--------------------------------------------------
--------------------------------------------------
--------------------------------------------------
1625324384300243 1625324384300 
$GNTXT,01,01,02,u-blox AG - www.u-blox.com*4E
1625324384300446 1625324384300 
$GNTXT,01,01,02,HW UBX-M8030 00080000*60
1625324384300453 1625324384300 
$GNTXT,01,01,02,EXT CORE 3.01 (107900)*33
1625324384300496 1625324384300 
$GNTXT,01,01,02,ROM BASE 2.01 (75331)*19
1625324384300537 1625324384300 
$GNTXT,01,01,02,FWVER=SPG 3.01*46
1625324384300673 1625324384300 
$GNTXT,01,01,02,PROTVER=18.00*11
1625324384300681 1625324384300 
$GNTXT,01,01,02,MOD=NEO-M8N-0*67
1625324384301060 1625324384301 
$GNTXT,01,01,02,FIS=0xEF4015 (100111)*58
1625324384301541 1625324384301 
$GNTXT,01,01,02,GPS;GLO;GAL;BDS*77
1625324384301625 1625324384301 
$GNTXT,01,01,02,SBAS;IMES;QZSS*49
1625324384301715 1625324384301 
$GNTXT,01,01,02,GNSS OTP=GPS;GLO*37
1625324384302454 1625324384302 
$GNTXT,01,01,02,LLC=FFFFFFFF-FFFFFFED-FFFFFFFF-FFFFFFFF-FFFFFF69*23
1625324384302659 1625324384302 
$GNTXT,01,01,02,ANTSUPERV=AC SD PDoS SR*3E
1625324384302678 1625324384302 
$GNTXT,01,01,02,ANTSTATUS=OK*25
1625324384303467 1625324384303 
$GNTXT,01,01,02,PF=86*76
1625324384480535 1625324384480 
$GNRMC,145944.00,A,3849.84801,S,06804.06461,W,0.099,,030721,,,A*63
1625324384480547 1625324384480 
$GNVTG,,T,,M,0.099,N,0.184,K,A*30
1625324384480552 1625324384480 
$GNGGA,145944.00,3849.84801,S,06804.06461,W,1,12,0.63,271.0,M,22.7,M,,*4D
1625324384480558 1625324384480 
$GNGSA,A,3,07,09,30,06,02,04,16,20,05,46,,,1.03,0.63,0.81*1D
1625324384480564 1625324384480 
$GNGSA,A,3,73,80,70,71,69,86,74,87,,,,,1.03,0.63,0.81*12
1625324384481377 1625324384481 
$GPGSV,4,1,15,02,26,275,38,04,20,096,26,05,07,222,41,06,26,311,26*78
1625324384481480 1625324384481 
$GPGSV,4,2,15,07,82,138,33,09,53,114,23,11,33,276,42,13,01,266,*72
1625324384481576 1625324384481 
$GPGSV,4,3,15,14,07,001,,16,11,142,37,20,27,227,37,30,55,312,35*7C
1625324384481593 1625324384481 
$GPGSV,4,4,15,46,14,289,29,48,17,292,,51,30,307,28*48
1625324384482692 1625324384482 
$GLGSV,3,1,10,69,07,065,23,70,60,104,23,71,48,206,42,72,05,231,25*66
1625324384482701 1625324384482 
$GLGSV,3,2,10,73,59,006,35,74,13,343,14,79,05,153,15,80,58,129,33*6A
1625324384482744 1625324384482 
$GLGSV,3,3,10,86,09,275,10,87,09,215,37*66
1625324384482768 1625324384482 
$GNGLL,3849.84801,S,06804.06461,W,145944.00,A,A*7D
1625324385484920 1625324385484 
$GNRMC,145945.00,A,3849.84810,S,06804.06462,W,0.219,,030721,,,A*6B
1625324385485815 1625324385485 
$GNVTG,,T,,M,0.219,N,0.406,K,A*35
1625324385486190 1625324385486 
$GNGGA,145945.00,3849.84810,S,06804.06462,W,1,12,0.61,271.0,M,22.7,M,,*4D
1625324385486255 1625324385486 
$GNGSA,A,3,07,09,30,06,02,04,16,20,05,46,,,1.01,0.61,0.80*1C
1625324385486362 1625324385486 
$GNGSA,A,3,73,80,70,71,69,86,74,87,,,,,1.01,0.61,0.80*13
1625324385486709 1625324385486 
$GPGSV,4,1,15,02,26,275,38,04,20,096,27,05,07,222,42,06,26,311,26*7A
1625324385486773 1625324385486 
$GPGSV,4,2,15,07,82,138,32,09,53,114,26,11,33,276,42,13,01,266,*76
1625324385486889 1625324385486 
$GPGSV,4,3,15,14,07,001,,16,11,142,37,20,27,227,38,30,55,312,36*70
1625324385486928 1625324385486 
$GPGSV,4,4,15,46,14,289,29,48,17,292,,51,30,307,29*49
1625324385489235 1625324385489 
$GLGSV,3,1,10,69,07,065,20,70,60,104,21,71,48,206,41,72,05,231,28*69
1625324385489262 1625324385489 
$GLGSV,3,2,10,73,59,006,36,74,13,343,10,79,05,153,,80,58,129,32*68
1625324385489305 1625324385489 
$GLGSV,3,3,10,86,09,275,10,87,09,215,38*69
1625324385489360 1625324385489 
$GNGLL,3849.84810,S,06804.06462,W,145945.00,A,A*7F
1625324386496373 1625324386496 
$GNRMC,145946.00,A,3849.84826,S,06804.06469,W,0.166,,030721,,,A*6D
1625324386496385 1625324386496 
$GNVTG,,T,,M,0.166,N,0.308,K,A*37
1625324386496391 1625324386496 
$GNGGA,145946.00,3849.84826,S,06804.06469,W,1,12,0.62,270.9,M,22.7,M,,*4B
1625324386496397 1625324386496 
$GNGSA,A,3,07,09,30,06,02,04,16,20,05,46,,,1.03,0.62,0.82*1F
1625324386496404 1625324386496 
$GNGSA,A,3,73,80,70,71,69,86,74,87,,,,,1.03,0.62,0.82*10
1625324386496721 1625324386496 
$GPGSV,4,1,15,02,26,275,38,04,20,096,29,05,07,222,42,06,26,311,25*77
1625324386496733 1625324386496 
$GPGS--------------------------------------------------
